{
"type": "FeatureCollection",
"crs": { "type": "name", "properties": { "name": "urn:ogc:def:crs:OGC:1.3:CRS84" } },
                                                                                
"features": [
{ "type": "Feature", "properties": { "NAME": "O'reilly William & Co Ltd", "TEL": "(212) 396-1822", "URL": "http:\/\/www.nyc.com\/arts__attractions\/oreilly_william__co_ltd.806\/whats_nearby.aspx", "ADDRESS1": "52 E 76th St", "ADDRESS2": null, "CITY": "New York", "ZIP": 10021.000000 }, "geometry": { "type": "Point", "coordinates": [ -73.962730745619908, 40.77380087163754 ] } },
{ "type": "Feature", "properties": { "NAME": "Organization of Independent Artists - Gallery 402", "TEL": "(212) 219-9213", "URL": "http:\/\/www.nonprofitgallery.com\/main\/usa\/ny\/oia.html", "ADDRESS1": "19 Hudson St.", "ADDRESS2": null, "CITY": "New York", "ZIP": 10013.000000 }, "geometry": { "type": "Point", "coordinates": [ -74.009385788629743, 40.716468509317352 ] } },
{ "type": "Feature", "properties": { "NAME": "Owen Gallery", "TEL": "(212) 879-2415", "URL": "http:\/\/www.owengallery.com\/about-us", "ADDRESS1": "19 E 75th St", "ADDRESS2": null, "CITY": "New York", "ZIP": 10021.000000 }, "geometry": { "type": "Point", "coordinates": [ -73.964351781458504, 40.774000852240867 ] } },
{ "type": "Feature", "properties": { "NAME": "P P O W Gallerie", "TEL": "(212) 647-1044", "URL": "http:\/\/www.ppowgallery.com\/", "ADDRESS1": "511 W 25th St", "ADDRESS2": null, "CITY": "New York", "ZIP": 10001.000000 }, "geometry": { "type": "Point", "coordinates": [ -74.003892610442321, 40.749585400844026 ] } },
{ "type": "Feature", "properties": { "NAME": "P P O W Inc", "TEL": "(212) 941-8642", "URL": "http:\/\/www.nyc.com\/arts__attractions\/p_p_o_w_inc.260\/whats_nearby.aspx", "ADDRESS1": "476 Broome St", "ADDRESS2": null, "CITY": "New York", "ZIP": 10013.000000 }, "geometry": { "type": "Point", "coordinates": [ -74.001763896145704, 40.722907427713267 ] } },
{ "type": "Feature", "properties": { "NAME": "P S 122 Gallery", "TEL": "(212) 228-4249", "URL": "http:\/\/ps122gallery.org\/", "ADDRESS1": "150 1st Ave", "ADDRESS2": null, "CITY": "New York", "ZIP": 10009.000000 }, "geometry": { "type": "Point", "coordinates": [ -73.984371480021906, 40.728167741593012 ] } },
{ "type": "Feature", "properties": { "NAME": "Pace Editions", "TEL": "(212) 645-9806", "URL": "http:\/\/www.ziplocal.com\/companies\/103327232-Pace-Editions", "ADDRESS1": "44 W 18th St", "ADDRESS2": null, "CITY": "New York", "ZIP": 10011.000000 }, "geometry": { "type": "Point", "coordinates": [ -73.994376707068511, 40.739201949637888 ] } },
{ "type": "Feature", "properties": { "NAME": "Pace MacGill Gallery", "TEL": "(212) 759-7999", "URL": "http:\/\/www.pacemacgill.com\/exhibitions.html", "ADDRESS1": "32 E. 57th St.", "ADDRESS2": "9th Fl.", "CITY": "New York", "ZIP": 10022.000000 }, "geometry": { "type": "Point", "coordinates": [ -73.972021749114532, 40.761949651138892 ] } },
{ "type": "Feature", "properties": { "NAME": "Pace Prints & Primitive Gallery", "TEL": "(212) 421-3237", "URL": "http:\/\/www.paceprints.com\/", "ADDRESS1": "32 E. 57th St.", "ADDRESS2": "3rd Fl.", "CITY": "New York", "ZIP": 10022.000000 }, "geometry": { "type": "Point", "coordinates": [ -73.972114618558223, 40.761836468538476 ] } },
{ "type": "Feature", "properties": { "NAME": "Pace Wildenstein", "TEL": "(212) 929-7000", "URL": "http:\/\/www.pacewildenstein.com\/", "ADDRESS1": "534 W 25th St", "ADDRESS2": null, "CITY": "New York", "ZIP": 10001.000000 }, "geometry": { "type": "Point", "coordinates": [ -74.004951176309703, 40.749448279774668 ] } },
{ "type": "Feature", "properties": { "NAME": "Pace Wildenstein", "TEL": "(212) 421-3292", "URL": "http:\/\/www.pacewildenstein.com\/uploads\/exhibitions\/keith%20tyson_with%20images_new.pdf", "ADDRESS1": "32 E 57th St", "ADDRESS2": "Fl 4", "CITY": "New York", "ZIP": 10022.000000 }, "geometry": { "type": "Point", "coordinates": [ -73.972076917584531, 40.761886074501106 ] } },
{ "type": "Feature", "properties": { "NAME": "Paige's Art Gallery", "TEL": "(212) 531-1577", "URL": "http:\/\/www.nyc.com\/arts__attractions\/paiges_art_gallery.1731\/editorial_review.aspx", "ADDRESS1": "3163 Broadway", "ADDRESS2": null, "CITY": "New York", "ZIP": 10027.000000 }, "geometry": { "type": "Point", "coordinates": [ -73.959273927183006, 40.81500069960105 ] } },
{ "type": "Feature", "properties": { "NAME": "PaineWebber Gallery", "TEL": "(212) 713-2885", "URL": "http:\/\/www.tfaoi.com\/aa\/1aa\/1aa458.htm", "ADDRESS1": "1285 Sixth Ave.", "ADDRESS2": null, "CITY": "New York", "ZIP": 10019.000000 }, "geometry": { "type": "Point", "coordinates": [ -73.980583866427807, 40.761188942578734 ] } },
{ "type": "Feature", "properties": { "NAME": "Paint Can Studios", "TEL": "(718) 937-7360", "URL": "http:\/\/ny.serviceslisted.com\/1655944-PaintCanStudios.htm", "ADDRESS1": "3608 34th St", "ADDRESS2": null, "CITY": "Astoria", "ZIP": 11106.000000 }, "geometry": { "type": "Point", "coordinates": [ -73.927940082754702, 40.755157871293029 ] } },
{ "type": "Feature", "properties": { "NAME": "Paley Barbara K", "TEL": "(212) 333-4747", "URL": "http:\/\/www.nyc.com\/arts__attractions\/paley_barbara_k.796\/map_location.aspx", "ADDRESS1": "1776 Broadway", "ADDRESS2": null, "CITY": "New York", "ZIP": 10019.000000 }, "geometry": { "type": "Point", "coordinates": [ -73.981480071257621, 40.766370019372701 ] } },
{ "type": "Feature", "properties": { "NAME": "Pall William Inc", "TEL": "(212) 758-3340", "URL": "http:\/\/local.botw.org\/New_York\/New_York\/Pall_William_Inc\/56447150.html", "ADDRESS1": "188 E 64th St", "ADDRESS2": null, "CITY": "New York", "ZIP": 10021.000000 }, "geometry": { "type": "Point", "coordinates": [ -73.964812338363018, 40.76450873868086 ] } },
{ "type": "Feature", "properties": { "NAME": "Palmer Meredith Gallery", "TEL": "(212) 828-9100", "URL": "http:\/\/www.artinfo.com\/galleryguide\/12649\/1149\/meredith-palmer-gallery-ltd\/visit\/", "ADDRESS1": "40 E 94th St", "ADDRESS2": null, "CITY": "New York", "ZIP": 10128.000000 }, "geometry": { "type": "Point", "coordinates": [ -73.954822489674612, 40.785633415645151 ] } },
{ "type": "Feature", "properties": { "NAME": "Pandora Old Masters", "TEL": "(212) 628-1974", "URL": "http:\/\/www.salondudessin.com\/an\/anpandora.html", "ADDRESS1": "212 E 70th St", "ADDRESS2": null, "CITY": "New York", "ZIP": 10021.000000 }, "geometry": { "type": "Point", "coordinates": [ -73.960816411845244, 40.767892352253504 ] } },
{ "type": "Feature", "properties": { "NAME": "Pardo Sheenan Galleries Ltd", "TEL": "(646) 935-0837", "URL": "http:\/\/web2.userinstinct.com\/30816848-pardo-sheenan-galleries-ltd.htm", "ADDRESS1": "121 E 31st St", "ADDRESS2": null, "CITY": "New York", "ZIP": 10016.000000 }, "geometry": { "type": "Point", "coordinates": [ -73.981561015990252, 40.744896101495932 ] } },
{ "type": "Feature", "properties": { "NAME": "Parker's Box", "TEL": "(718) 388-2882", "URL": "http:\/\/www.parkersbox.com\/exhibitions\/current\/08\/EDITH_PressRelease.pdf", "ADDRESS1": "193 Grand St", "ADDRESS2": null, "CITY": "Brooklyn", "ZIP": 11211.000000 }, "geometry": { "type": "Point", "coordinates": [ -73.96044470820155, 40.714309158269231 ] } },
{ "type": "Feature", "properties": { "NAME": "Parsons Galleries", "TEL": "(212) 229-8987", "URL": "http:\/\/www.parsonswest.com\/", "ADDRESS1": "2 W. 13th St.", "ADDRESS2": null, "CITY": "New York", "ZIP": 10011.000000 }, "geometry": { "type": "Point", "coordinates": [ -73.994781862019764, 40.735394953112916 ] } },
{ "type": "Feature", "properties": { "NAME": "Patricia Laligant Photographs", "TEL": "(212) 252-9922", "URL": "http:\/\/www.patricialaligant.com\/intro.htm", "ADDRESS1": "150 W 28th St", "ADDRESS2": null, "CITY": "New York", "ZIP": 10001.000000 }, "geometry": { "type": "Point", "coordinates": [ -73.992820547100777, 40.746760207218706 ] } },
{ "type": "Feature", "properties": { "NAME": "Patrick's Gallery", "TEL": "(212) 741-7453", "URL": "http:\/\/outalot.com\/listings\/318942-Patricks-Gallery", "ADDRESS1": "220 W 19th St", "ADDRESS2": null, "CITY": "New York", "ZIP": 10011.000000 }, "geometry": { "type": "Point", "coordinates": [ -73.998510171820215, 40.74186877711017 ] } },
{ "type": "Feature", "properties": { "NAME": "Paul Kasmin Gallery", "TEL": "(212) 563-4474", "URL": "http:\/\/www.paulkasmingallery.com\/", "ADDRESS1": "293 10th Ave", "ADDRESS2": null, "CITY": "New York", "ZIP": 10001.000000 }, "geometry": { "type": "Point", "coordinates": [ -74.002722857060292, 40.750192750078291 ] } },
{ "type": "Feature", "properties": { "NAME": "Paula Cooper Gallery", "TEL": "(212) 255-1105", "URL": "http:\/\/www.paulacoopergallery.com\/", "ADDRESS1": "534 W. 21st St.", "ADDRESS2": null, "CITY": "New York", "ZIP": 10011.000000 }, "geometry": { "type": "Point", "coordinates": [ -74.006897726651545, 40.74691990132532 ] } },
{ "type": "Feature", "properties": { "NAME": "Peck Ian Fine Paintings Ltd", "TEL": "(212) 396-2442", "URL": "http:\/\/gallerydriver.com\/?method=Gallery.GalleryDetail&GalleryID=489D01E8-3048-28EB-92857B8592DAED09", "ADDRESS1": "980 Madison Ave", "ADDRESS2": null, "CITY": "New York", "ZIP": 10021.000000 }, "geometry": { "type": "Point", "coordinates": [ -73.963650127556249, 40.774760532234687 ] } },
{ "type": "Feature", "properties": { "NAME": "Peder Bonnier Inc", "TEL": "(646) 638-0878", "URL": "http:\/\/web2.userinstinct.com\/30816857-peder-bonnier-inc.htm", "ADDRESS1": "206 W 23rd St", "ADDRESS2": "Fl 4", "CITY": "New York", "ZIP": 10011.000000 }, "geometry": { "type": "Point", "coordinates": [ -73.996239142321798, 40.744059945818776 ] } },
{ "type": "Feature", "properties": { "NAME": "Perimeter Gallery", "TEL": "(212) 675-1585", "URL": "http:\/\/www.spoke.com\/info\/c633Fr3\/PerimeterGalleryInc", "ADDRESS1": "511 W 25th St", "ADDRESS2": null, "CITY": "New York", "ZIP": 10001.000000 }, "geometry": { "type": "Point", "coordinates": [ -74.003899394028323, 40.749381253194926 ] } },
{ "type": "Feature", "properties": { "NAME": "Perlow Rich Katharina Gallery Inc", "TEL": "(212) 644-7171", "URL": "http:\/\/www.artnet.com\/katharinarichperlow.html", "ADDRESS1": "41 E 57th St", "ADDRESS2": null, "CITY": "New York", "ZIP": 10022.000000 }, "geometry": { "type": "Point", "coordinates": [ -73.971639964898202, 40.762365409830146 ] } },
{ "type": "Feature", "properties": { "NAME": "Peter L Villa Fine Art", "TEL": "(212) 371-1196", "URL": "http:\/\/peterlvillafineart.com\/", "ADDRESS1": "110 E 57th St", "ADDRESS2": null, "CITY": "New York", "ZIP": 10022.000000 }, "geometry": { "type": "Point", "coordinates": [ -73.970294372153973, 40.761169700561055 ] } },
{ "type": "Feature", "properties": { "NAME": "Peter Rose Gallery", "TEL": "(212) 759-8173", "URL": "http:\/\/peterrosegallery.com\/", "ADDRESS1": "200 E 58th St", "ADDRESS2": "Apt 20C", "CITY": "New York", "ZIP": 10022.000000 }, "geometry": { "type": "Point", "coordinates": [ -73.966904946752578, 40.760575546804169 ] } },
{ "type": "Feature", "properties": { "NAME": "Peters Gerald Gallery", "TEL": "(212) 628-9760", "URL": "http:\/\/www.gpgallery.com\/", "ADDRESS1": "24 E 78th St", "ADDRESS2": null, "CITY": "New York", "ZIP": 10075.000000 }, "geometry": { "type": "Point", "coordinates": [ -73.963169370826122, 40.775663560369161 ] } },
{ "type": "Feature", "properties": { "NAME": "Phoenix Design Ltd", "TEL": "(718) 423-3458", "URL": "http:\/\/www.topix.net\/yp\/flushing-ny\/2161581053-phoenix-design-ltd", "ADDRESS1": "21415 41st Ave", "ADDRESS2": null, "CITY": "Bayside", "ZIP": 11361.000000 }, "geometry": { "type": "Point", "coordinates": [ -73.770590623151477, 40.763668548106352 ] } },
{ "type": "Feature", "properties": { "NAME": "Phoenix Gallery", "TEL": "(212) 226-8711", "URL": "http:\/\/www.phoenix-gallery.com\/phoenixgalleryfellowship2009.pdf", "ADDRESS1": "210 ELEVENTH AVENUE", "ADDRESS2": "SUITE 902", "CITY": "New York", "ZIP": 10001.000000 }, "geometry": { "type": "Point", "coordinates": [ -74.005991665311967, 40.749775251812139 ] } },
{ "type": "Feature", "properties": { "NAME": "Phoneup", "TEL": "(212) 219-8287", "URL": "http:\/\/www.nyc.com\/arts__attractions\/phoneup.642\/map_location.aspx", "ADDRESS1": "55 Chrystie St", "ADDRESS2": null, "CITY": "New York", "ZIP": 10002.000000 }, "geometry": { "type": "Point", "coordinates": [ -73.995026048321748, 40.716516718618031 ] } },
{ "type": "Feature", "properties": { "NAME": "Photo & Art Gallery", "TEL": "(718) 471-7840", "URL": "http:\/\/www.yelp.com\/biz\/photo-and-art-gallery-far-rockaway", "ADDRESS1": "1023 Beach 20th St", "ADDRESS2": null, "CITY": "Far Rockaway", "ZIP": 11691.000000 }, "geometry": { "type": "Point", "coordinates": [ -73.753394465797967, 40.602962100699528 ] } },
{ "type": "Feature", "properties": { "NAME": "Photo Collection Gagliardi", "TEL": "(212) 229-1816", "URL": "http:\/\/www.gagliardiphoto.com\/contact.htm", "ADDRESS1": "27 W 20th St", "ADDRESS2": null, "CITY": "New York", "ZIP": 10011.000000 }, "geometry": { "type": "Point", "coordinates": [ -73.992696467085622, 40.74063766553526 ] } },
{ "type": "Feature", "properties": { "NAME": "Photo District Gallery", "TEL": "(212) 807-8787", "URL": "http:\/\/wap.outalot.com\/listings\/319183-Photo-District-Gallery", "ADDRESS1": "37 W 20th St", "ADDRESS2": "Lbby", "CITY": "New York", "ZIP": 10011.000000 }, "geometry": { "type": "Point", "coordinates": [ -73.993105744421968, 40.740804852806995 ] } },
{ "type": "Feature", "properties": { "NAME": "Phyllis Lucas Gallery Inc", "TEL": "(212) 755-1516", "URL": "http:\/\/www.phyllislucasgallery.com\/", "ADDRESS1": "981 2nd Ave", "ADDRESS2": null, "CITY": "New York", "ZIP": 10022.000000 }, "geometry": { "type": "Point", "coordinates": [ -73.967950858709798, 40.756145084475193 ] } },
{ "type": "Feature", "properties": { "NAME": "Picture This Corporate Art", "TEL": "(718) 625-2722", "URL": "http:\/\/www.ptcanyc.com\/", "ADDRESS1": "249 Smith Street", "ADDRESS2": "# 102", "CITY": "Brooklyn", "ZIP": 11231.000000 }, "geometry": { "type": "Point", "coordinates": [ -73.992603501616273, 40.683241936415847 ] } },
{ "type": "Feature", "properties": { "NAME": "Pierogi 2000", "TEL": "(718) 599-2144", "URL": "http:\/\/www.pierogi2000.com\/", "ADDRESS1": "177 N 9th St", "ADDRESS2": null, "CITY": "Brooklyn", "ZIP": 11211.000000 }, "geometry": { "type": "Point", "coordinates": [ -73.955781600044105, 40.71875034597003 ] } },
{ "type": "Feature", "properties": { "NAME": "Place Des Vosges", "TEL": "(212) 995-2899", "URL": "http:\/\/local.yahoo.com\/info-11035506-place-des-vosges-manhattan", "ADDRESS1": "816 Broadway", "ADDRESS2": null, "CITY": "New York", "ZIP": 10003.000000 }, "geometry": { "type": "Point", "coordinates": [ -73.990944079773413, 40.732761217455703 ] } },
{ "type": "Feature", "properties": { "NAME": "Plane Space", "TEL": "(917) 606-1268", "URL": "http:\/\/www.artinfo.com\/galleryguide\/20261\/6796\/115454\/plane-space-new-york\/exhibition\/gangbusters\/", "ADDRESS1": "102 Charles St", "ADDRESS2": null, "CITY": "New York", "ZIP": 10014.000000 }, "geometry": { "type": "Point", "coordinates": [ -74.005183628493896, 40.734399634107746 ] } },
{ "type": "Feature", "properties": { "NAME": "Plaster Palace", "TEL": "(718) 621-3175", "URL": "http:\/\/www.merchantcircle.com\/business\/Plaster.Palace.718-621-3175", "ADDRESS1": "5305 18th Ave", "ADDRESS2": null, "CITY": "Brooklyn", "ZIP": 11204.000000 }, "geometry": { "type": "Point", "coordinates": [ -73.983150353838226, 40.625759572740556 ] } },
{ "type": "Feature", "properties": { "NAME": "Plaza Holding Inc", "TEL": "(212) 247-4744", "URL": "http:\/\/m.nyc.com\/arts__attractions\/plaza_holding_inc.300\/map_location.aspx", "ADDRESS1": "15 W 55th St", "ADDRESS2": null, "CITY": "New York", "ZIP": 10019.000000 }, "geometry": { "type": "Point", "coordinates": [ -73.97575361685044, 40.762158820594038 ] } },
{ "type": "Feature", "properties": { "NAME": "Plaza Holding Inc", "TEL": "(212) 956-1900", "URL": "http:\/\/www.nyc.com\/arts__attractions\/plaza_holding_inc.300\/whats_nearby.aspx", "ADDRESS1": "15 W 55th St", "ADDRESS2": null, "CITY": "New York", "ZIP": 10019.000000 }, "geometry": { "type": "Point", "coordinates": [ -73.975680057121423, 40.762260363075249 ] } },
{ "type": "Feature", "properties": { "NAME": "Plaza Watch & Jewelry Exchange", "TEL": "(212) 246-2000", "URL": "http:\/\/local.botw.org\/New_York\/New_York\/Plaza_Watch_and_Jewelry_Exchange\/55631196.html", "ADDRESS1": "145 W 57th St", "ADDRESS2": null, "CITY": "New York", "ZIP": 10019.000000 }, "geometry": { "type": "Point", "coordinates": [ -73.978674139806486, 40.765261437981174 ] } },
{ "type": "Feature", "properties": { "NAME": "Pleiades Gallery", "TEL": "(646) 230-0056", "URL": "http:\/\/www.pleiadesgallery.com\/index.html", "ADDRESS1": "530 W 25th St", "ADDRESS2": null, "CITY": "New York", "ZIP": 10001.000000 }, "geometry": { "type": "Point", "coordinates": [ -74.004770690103939, 40.749374933970088 ] } },
{ "type": "Feature", "properties": { "NAME": "Plum Blossom Gallery", "TEL": "(212) 719-7008", "URL": "http:\/\/www.plumblossoms.com\/", "ADDRESS1": "555 W 25th St", "ADDRESS2": null, "CITY": "New York", "ZIP": 10001.000000 }, "geometry": { "type": "Point", "coordinates": [ -74.005373576878441, 40.750176328043366 ] } },
{ "type": "Feature", "properties": { "NAME": "Polizzi Fine Art", "TEL": "(718) 680-6777", "URL": "http:\/\/www.polizzifineart.com\/", "ADDRESS1": "7813 3rd Ave", "ADDRESS2": null, "CITY": "Brooklyn", "ZIP": 11209.000000 }, "geometry": { "type": "Point", "coordinates": [ -74.028602024780866, 40.628876223412171 ] } },
{ "type": "Feature", "properties": { "NAME": "Poller Leah", "TEL": "(212) 274-1704", "URL": "http:\/\/www.sculpture.org\/portfolio\/sculptorPage.php?sculptor_id=1003310", "ADDRESS1": "98 Greene St", "ADDRESS2": null, "CITY": "New York", "ZIP": 10012.000000 }, "geometry": { "type": "Point", "coordinates": [ -73.999739755338453, 40.724176711476531 ] } },
{ "type": "Feature", "properties": { "NAME": "Portara Gallery", "TEL": "(718) 224-7093", "URL": "http:\/\/newyork.citysearch.com\/profile\/map\/12036088\/bayside_ny\/portara_gallery.html", "ADDRESS1": "4720A Bell Blvd", "ADDRESS2": null, "CITY": "Bayside", "ZIP": 11361.000000 }, "geometry": { "type": "Point", "coordinates": [ -73.767532639008891, 40.756539783245543 ] } },
{ "type": "Feature", "properties": { "NAME": "Portico Fine Art", "TEL": "(212) 941-8248", "URL": "http:\/\/www.porticony.com\/", "ADDRESS1": "139 Spring St", "ADDRESS2": null, "CITY": "New York", "ZIP": 10012.000000 }, "geometry": { "type": "Point", "coordinates": [ -74.000826655912348, 40.724259321517799 ] } },
{ "type": "Feature", "properties": { "NAME": "Portrait Gallery", "TEL": "(718) 377-8762", "URL": "http:\/\/brooklyn.ny.povo.com\/Portrait_Gallery_%28Kings_Highway%29", "ADDRESS1": "5100 Kings Plz", "ADDRESS2": null, "CITY": "Brooklyn", "ZIP": 11234.000000 }, "geometry": { "type": "Point", "coordinates": [ -73.922281354157505, 40.60993574125613 ] } },
{ "type": "Feature", "properties": { "NAME": "Postmasters Gallery", "TEL": "(212) 727-3323", "URL": "http:\/\/www.postmastersart.com\/", "ADDRESS1": "459 W 19th St", "ADDRESS2": null, "CITY": "New York", "ZIP": 10011.000000 }, "geometry": { "type": "Point", "coordinates": [ -74.005346603928331, 40.745202434263916 ] } },
{ "type": "Feature", "properties": { "NAME": "Praxis International Art", "TEL": "(212) 772-9478", "URL": "http:\/\/galleries.absolutearts.com\/galleries\/praxis-art\/index.html", "ADDRESS1": "25 E 73rd St", "ADDRESS2": "Fl 4", "CITY": "New York", "ZIP": 10021.000000 }, "geometry": { "type": "Point", "coordinates": [ -73.965135421445808, 40.772776842957157 ] } },
{ "type": "Feature", "properties": { "NAME": "Prieto International Attorney In Fact Johnpoll", "TEL": "(212) 267-6790", "URL": "http:\/\/m.nyc.com\/arts__attractions\/prieto_international_attorney_in_fact_johnpoll.793\/whats_nearby.aspx?sec=pha", "ADDRESS1": "127 Fulton St", "ADDRESS2": null, "CITY": "New York", "ZIP": 10038.000000 }, "geometry": { "type": "Point", "coordinates": [ -74.00723565260121, 40.71024984423633 ] } },
{ "type": "Feature", "properties": { "NAME": "Prince Street Gallery", "TEL": "(646) 230-0246", "URL": "http:\/\/www.princestreetgallery.com\/contact.html", "ADDRESS1": "530 W 25th St", "ADDRESS2": null, "CITY": "New York", "ZIP": 10001.000000 }, "geometry": { "type": "Point", "coordinates": [ -74.004694800109021, 40.74933789747341 ] } },
{ "type": "Feature", "properties": { "NAME": "Professional Fine Arts Svces Inc", "TEL": "(646) 336-6613", "URL": "http:\/\/www.nyc.com\/arts__attractions\/professional_fine_arts_svces_inc.724\/editorial_review.aspx", "ADDRESS1": "141 W 20th St", "ADDRESS2": null, "CITY": "New York", "ZIP": 10011.000000 }, "geometry": { "type": "Point", "coordinates": [ -73.99573169554823, 40.741917234174444 ] } },
{ "type": "Feature", "properties": { "NAME": "Proposition the", "TEL": "(212) 242-0035", "URL": "http:\/\/www.theproposition.com\/", "ADDRESS1": "162 11th Ave", "ADDRESS2": null, "CITY": "New York", "ZIP": 10011.000000 }, "geometry": { "type": "Point", "coordinates": [ -74.007148420249067, 40.748205397482053 ] } },
{ "type": "Feature", "properties": { "NAME": "Public Art Fund", "TEL": "(212) 980-4575", "URL": "http:\/\/www.publicartfund.org\/", "ADDRESS1": "1 E. 53d St.", "ADDRESS2": null, "CITY": "New York", "ZIP": 10022.000000 }, "geometry": { "type": "Point", "coordinates": [ -73.97518753856248, 40.76037548407389 ] } },
{ "type": "Feature", "properties": { "NAME": "Puerto Rican Work Shop Inc", "TEL": "(212) 534-7534", "URL": "http:\/\/www.nyc.com\/arts__attractions\/puerto_rican_work_shop_inc.1733\/whats_nearby.aspx", "ADDRESS1": "121 E 106th St", "ADDRESS2": null, "CITY": "New York", "ZIP": 10029.000000 }, "geometry": { "type": "Point", "coordinates": [ -73.946727593447065, 40.792699845304668 ] } },
{ "type": "Feature", "properties": { "NAME": "Pushman Gallery Inc", "TEL": "(212) 582-0130", "URL": "http:\/\/local.botw.org\/New_York\/New_York\/Pushman_Gallery_Inc\/10887507.html", "ADDRESS1": "154 W 57th St", "ADDRESS2": null, "CITY": "New York", "ZIP": 10019.000000 }, "geometry": { "type": "Point", "coordinates": [ -73.97991307883494, 40.764999088991054 ] } },
{ "type": "Feature", "properties": { "NAME": "Pytlak Art Studio", "TEL": "(718) 599-1265", "URL": "http:\/\/www.anitapytlak.net\/uk\/index.html", "ADDRESS1": "573 Metropolitan Ave", "ADDRESS2": null, "CITY": "Brooklyn", "ZIP": 11211.000000 }, "geometry": { "type": "Point", "coordinates": [ -73.949885272505426, 40.714276127740796 ] } },
{ "type": "Feature", "properties": { "NAME": "Queen Art Publishers Inc", "TEL": "(212) 274-0237", "URL": "http:\/\/www.lights.ca\/publisher\/db\/9\/3739.html", "ADDRESS1": "481 Washington St", "ADDRESS2": null, "CITY": "New York", "ZIP": 10013.000000 }, "geometry": { "type": "Point", "coordinates": [ -74.009795492896259, 40.725491950651715 ] } },
{ "type": "Feature", "properties": { "NAME": "Questroyal Fine Art", "TEL": "(212) 744-3586", "URL": "http:\/\/www.questroyalfineart.com\/", "ADDRESS1": "903 Park Ave", "ADDRESS2": "Apt 3A", "CITY": "New York", "ZIP": 10021.000000 }, "geometry": { "type": "Point", "coordinates": [ -73.960017739376795, 40.775723801728553 ] } },
{ "type": "Feature", "properties": { "NAME": "Rabenou Yris Ancient Arts", "TEL": "(212) 486-0661", "URL": "http:\/\/www.antiquecollectiblestore.com\/detail\/48742\/rabenou-yris-ancient-arts.html", "ADDRESS1": "249 E 61st St", "ADDRESS2": null, "CITY": "New York", "ZIP": 10021.000000 }, "geometry": { "type": "Point", "coordinates": [ -73.963836203582304, 40.762223977689388 ] } },
{ "type": "Feature", "properties": { "NAME": "Radio House Gallery", "TEL": "(212) 620-7630", "URL": "http:\/\/gallerydriver.com\/?method=Gallery.GalleryDetail&GalleryID=489D6139-3048-28EB-92ED919F6F1756B9", "ADDRESS1": "601 W 26th St", "ADDRESS2": null, "CITY": "New York", "ZIP": 10001.000000 }, "geometry": { "type": "Point", "coordinates": [ -74.006985227497722, 40.751782671966332 ] } },
{ "type": "Feature", "properties": { "NAME": "Rafael Gallery", "TEL": "(212) 744-8666", "URL": "http:\/\/www.getfave.com\/locations\/888896-rafael-gallery", "ADDRESS1": "241 E 59th St", "ADDRESS2": null, "CITY": "New York", "ZIP": 10022.000000 }, "geometry": { "type": "Point", "coordinates": [ -73.964848473117172, 40.761068913988353 ] } },
{ "type": "Feature", "properties": { "NAME": "Rainbow Fine Art Inc", "TEL": "(212) 585-2587", "URL": "http:\/\/local.botw.org\/New_York\/New_York\/Rainbow_Fine_Art_Inc\/11030300.html", "ADDRESS1": "15 E 82nd St", "ADDRESS2": null, "CITY": "New York", "ZIP": 10028.000000 }, "geometry": { "type": "Point", "coordinates": [ -73.961084780260677, 40.778664809980611 ] } },
{ "type": "Feature", "properties": { "NAME": "Ralph Chait Galleries Inc", "TEL": "(212) 397-2818", "URL": "http:\/\/www.rmchait.com\/", "ADDRESS1": "724 5th Ave", "ADDRESS2": null, "CITY": "New York", "ZIP": 10019.000000 }, "geometry": { "type": "Point", "coordinates": [ -73.974724674249032, 40.762697988060935 ] } },
{ "type": "Feature", "properties": { "NAME": "Randel Gallery Inc", "TEL": "(212) 861-6650", "URL": "http:\/\/www.antiquesandfineart.com\/dealers\/about.cfm?id=427&ap=1", "ADDRESS1": "49 East 78th Street", "ADDRESS2": "1B", "CITY": "New York", "ZIP": 10021.000000 }, "geometry": { "type": "Point", "coordinates": [ -73.961941822880831, 40.775570441214931 ] } },
{ "type": "Feature", "properties": { "NAME": "Randolph & Tate Assocs", "TEL": "(212) 595-6302", "URL": "http:\/\/directory.northjersey.com\/randolph+tate+assocs.9.7658139p.home.html", "ADDRESS1": "234 5th Ave", "ADDRESS2": null, "CITY": "New York", "ZIP": 10001.000000 }, "geometry": { "type": "Point", "coordinates": [ -73.988046803739223, 40.744356843228267 ] } },
{ "type": "Feature", "properties": { "NAME": "Raphael Fodde Editions", "TEL": "(718) 624-6048", "URL": "http:\/\/www.yelp.com\/biz\/raphael-fodde-editions-brooklyn", "ADDRESS1": "70 WASHINGTON ST", "ADDRESS2": null, "CITY": "Brooklyn", "ZIP": 11201.000000 }, "geometry": { "type": "Point", "coordinates": [ -73.989977355991016, 40.702087400235925 ] } },
{ "type": "Feature", "properties": { "NAME": "Rare art Gallery", "TEL": "(212) 268-1520", "URL": "http:\/\/www.rare-gallery.com\/", "ADDRESS1": "521 W 26th St Bsmt", "ADDRESS2": null, "CITY": "New York", "ZIP": 10001.000000 }, "geometry": { "type": "Point", "coordinates": [ -74.003689994174323, 40.750215725679666 ] } },
{ "type": "Feature", "properties": { "NAME": "Raydon Gallery", "TEL": "(212) 288-3555", "URL": "http:\/\/www.rateitall.com\/i-410005-raydon-gallery.aspx", "ADDRESS1": "1091 Madison Ave", "ADDRESS2": null, "CITY": "New York", "ZIP": 10001.000000 }, "geometry": { "type": "Point", "coordinates": [ -73.960326676322325, 40.778337205390557 ] } },
{ "type": "Feature", "properties": { "NAME": "Red Dot", "TEL": "(212) 675-0448", "URL": "http:\/\/www.rateitall.com\/i-410007-red-dot.aspx", "ADDRESS1": "140 W 22nd St", "ADDRESS2": null, "CITY": "New York", "ZIP": 10011.000000 }, "geometry": { "type": "Point", "coordinates": [ -73.99505920460588, 40.742744575065082 ] } },
{ "type": "Feature", "properties": { "NAME": "Reece Galleries Inc The", "TEL": "(212) 333-5830", "URL": "http:\/\/www.reecegalleries.com\/", "ADDRESS1": "24 W 57th St", "ADDRESS2": null, "CITY": "New York", "ZIP": 10019.000000 }, "geometry": { "type": "Point", "coordinates": [ -73.97570995606246, 40.763356067925578 ] } },
{ "type": "Feature", "properties": { "NAME": "Reeves Contemporary Inc", "TEL": "(212) 714-0044", "URL": "http:\/\/www.cynthia-reeves.com\/", "ADDRESS1": "535 W 24th St", "ADDRESS2": null, "CITY": "New York", "ZIP": 10011.000000 }, "geometry": { "type": "Point", "coordinates": [ -74.005188208579284, 40.749282578930064 ] } },
{ "type": "Feature", "properties": { "NAME": "Regina's Art Center", "TEL": "(718) 837-5807", "URL": "http:\/\/www.reginasartcenter.com\/contact.html", "ADDRESS1": "1921 Benson Ave", "ADDRESS2": null, "CITY": "Brooklyn", "ZIP": 11214.000000 }, "geometry": { "type": "Point", "coordinates": [ -74.001728591902079, 40.603379984260791 ] } },
{ "type": "Feature", "properties": { "NAME": "Rehs Galleries Inc", "TEL": "(212) 355-5710", "URL": "http:\/\/www.rehs.com\/", "ADDRESS1": "5 E 57th St", "ADDRESS2": "Fl 8", "CITY": "New York", "ZIP": 10022.000000 }, "geometry": { "type": "Point", "coordinates": [ -73.973110440920962, 40.762974004491397 ] } },
{ "type": "Feature", "properties": { "NAME": "Reinhold Brown Gallery", "TEL": "(212) 734-7999", "URL": "http:\/\/gallerydriver.com\/?method=Gallery.GalleryDetail&GalleryID=489D6945-3048-28EB-92C3310EAAC2B0DD", "ADDRESS1": "1100 Madison Ave", "ADDRESS2": "Ph", "CITY": "New York", "ZIP": 10028.000000 }, "geometry": { "type": "Point", "coordinates": [ -73.960688942725412, 40.778640244998797 ] } },
{ "type": "Feature", "properties": { "NAME": "Renaissance Gallery", "TEL": "(212) 234-0974", "URL": "http:\/\/www.livevillage.com\/newyork\/art\/renaissance-gallery.html", "ADDRESS1": "300 W 147th St", "ADDRESS2": null, "CITY": "New York", "ZIP": 10039.000000 }, "geometry": { "type": "Point", "coordinates": [ -73.941347474953488, 40.824123583615744 ] } },
{ "type": "Feature", "properties": { "NAME": "Resnick Ira Inc", "TEL": "(212) 223-1009", "URL": "http:\/\/www.nyc.com\/search\/find.aspx?secid=2&name=Resnick%20Ira%20Inc", "ADDRESS1": "133 E 58th St", "ADDRESS2": "Ste 1001", "CITY": "New York", "ZIP": 10022.000000 }, "geometry": { "type": "Point", "coordinates": [ -73.968810610877981, 40.761894529726732 ] } },
{ "type": "Feature", "properties": { "NAME": "Ricco Maresca Gallery", "TEL": "(212) 627-4819", "URL": "http:\/\/www.riccomaresca.com", "ADDRESS1": "529 W 20th St", "ADDRESS2": null, "CITY": "New York", "ZIP": 10011.000000 }, "geometry": { "type": "Point", "coordinates": [ -74.006846534596363, 40.746612247273234 ] } },
{ "type": "Feature", "properties": { "NAME": "Richard Gray Gallery", "TEL": "(212) 472-8787", "URL": "http:\/\/www.richardgraygallery.com\/default.asp", "ADDRESS1": "1018 Madison Ave", "ADDRESS2": null, "CITY": "New York", "ZIP": 10021.000000 }, "geometry": { "type": "Point", "coordinates": [ -73.962687443009401, 40.776035116594791 ] } },
{ "type": "Feature", "properties": { "NAME": "Richard Solomon", "TEL": "(212) 223-9545", "URL": "http:\/\/www.richardsolomon.com\/", "ADDRESS1": "305 E 50th St", "ADDRESS2": null, "CITY": "New York", "ZIP": 10022.000000 }, "geometry": { "type": "Point", "coordinates": [ -73.967968223754312, 40.754902032676114 ] } },
{ "type": "Feature", "properties": { "NAME": "Richard York Gallery", "TEL": "(212) 772-9155", "URL": "http:\/\/gallerydriver.com\/?method=Gallery.GalleryDetail&GalleryID=489D6E92-3048-28EB-924791189BBB08A3", "ADDRESS1": "21 E. 65th St.", "ADDRESS2": "2nd. Fl.", "CITY": "New York", "ZIP": 10065.000000 }, "geometry": { "type": "Point", "coordinates": [ -73.968842420262533, 40.767641852577107 ] } },
{ "type": "Feature", "properties": { "NAME": "Rienzo Gallery", "TEL": "(212) 288-2226", "URL": "http:\/\/www.artnet.com\/Galleries\/About.asp?G=&gid=166017&which=&rta=http:\/\/www.artnet.com", "ADDRESS1": "20 E 69th St", "ADDRESS2": null, "CITY": "New York", "ZIP": 10021.000000 }, "geometry": { "type": "Point", "coordinates": [ -73.967151774590562, 40.769830800695836 ] } },
{ "type": "Feature", "properties": { "NAME": "Ritter-Antik Inc", "TEL": "(212) 673-2213", "URL": "http:\/\/www.ritterantik.com\/index.php", "ADDRESS1": "35 E 10th St", "ADDRESS2": null, "CITY": "New York", "ZIP": 10003.000000 }, "geometry": { "type": "Point", "coordinates": [ -73.992701942198394, 40.732504272410388 ] } },
{ "type": "Feature", "properties": { "NAME": "Rivington Bar & Art Gallery", "TEL": "(212) 253-7703", "URL": "http:\/\/www.nyc.com\/arts__attractions\/rivington_bar__art_gallery.1676\/whats_nearby.aspx", "ADDRESS1": "174 Rivington St", "ADDRESS2": null, "CITY": "New York", "ZIP": 10002.000000 }, "geometry": { "type": "Point", "coordinates": [ -73.984438657490514, 40.71908747964379 ] } },
{ "type": "Feature", "properties": { "NAME": "Robert Lee Morris Inc", "TEL": "(212) 431-9405", "URL": "http:\/\/www.robertleemorris.com\/contactus.php", "ADDRESS1": "400 W Broadway", "ADDRESS2": null, "CITY": "New York", "ZIP": 10012.000000 }, "geometry": { "type": "Point", "coordinates": [ -74.002366506081387, 40.724407088132374 ] } },
{ "type": "Feature", "properties": { "NAME": "Robert Mann Gallery", "TEL": "(212) 989-7600", "URL": "http:\/\/www.robertmann.com\/", "ADDRESS1": "210 11th Ave", "ADDRESS2": null, "CITY": "New York", "ZIP": 10001.000000 }, "geometry": { "type": "Point", "coordinates": [ -74.005911244273392, 40.74974338435851 ] } },
{ "type": "Feature", "properties": { "NAME": "Robert Miller Gallery Inc", "TEL": "(212) 366-4774", "URL": "http:\/\/www.robertmillergallery.com\/index2.html", "ADDRESS1": "526 W 26th St", "ADDRESS2": null, "CITY": "New York", "ZIP": 10001.000000 }, "geometry": { "type": "Point", "coordinates": [ -74.004233986018562, 40.74998085501484 ] } },
{ "type": "Feature", "properties": { "NAME": "Robert Steele Gallery", "TEL": "(212) 243-0165", "URL": "http:\/\/www.robertsteelegallery.com\/", "ADDRESS1": "511 W 25th St", "ADDRESS2": null, "CITY": "New York", "ZIP": 10001.000000 }, "geometry": { "type": "Point", "coordinates": [ -74.003985477809351, 40.749423457867337 ] } },
{ "type": "Feature", "properties": { "NAME": "Robertson African Arts", "TEL": "(212) 206-0912", "URL": "http:\/\/wap.outalot.com\/listings\/314463-Robertson-African-Arts", "ADDRESS1": "36 W 22nd St", "ADDRESS2": "Apt 4", "CITY": "New York", "ZIP": 10010.000000 }, "geometry": { "type": "Point", "coordinates": [ -73.99212377125501, 40.741508351534364 ] } },
{ "type": "Feature", "properties": { "NAME": "Rogallerycom", "TEL": "(212) 732-6887", "URL": "http:\/\/www.auction-directory.info\/auction\/rogallerycom-300-east-74th-street-new-york-ny-212-732-6887\/1283", "ADDRESS1": "300 East 74th Street", "ADDRESS2": null, "CITY": "New York", "ZIP": 10021.000000 }, "geometry": { "type": "Point", "coordinates": [ -73.957268088297596, 40.769707495773993 ] } },
{ "type": "Feature", "properties": { "NAME": "Ronald Feldman Fine Arts", "TEL": "(212) 226-3232", "URL": "http:\/\/www.feldmangallery.com\/pages\/home_frame.html", "ADDRESS1": "31 Mercer St", "ADDRESS2": null, "CITY": "New York", "ZIP": 10013.000000 }, "geometry": { "type": "Point", "coordinates": [ -74.001855913280963, 40.721160389259865 ] } },
{ "type": "Feature", "properties": { "NAME": "Roosevelt Island Visual Arts Assoc", "TEL": "(212) 308-6630", "URL": "http:\/\/rivaa.com\/", "ADDRESS1": "527 Main St", "ADDRESS2": null, "CITY": "New York", "ZIP": 10044.000000 }, "geometry": { "type": "Point", "coordinates": [ -73.956435097060165, 40.753598670246568 ] } },
{ "type": "Feature", "properties": { "NAME": "Rosen Andrea Gallery Inc", "TEL": "(212) 627-6000", "URL": "http:\/\/www.andrearosengallery.com\/", "ADDRESS1": "525 W 24th St", "ADDRESS2": null, "CITY": "New York", "ZIP": 10011.000000 }, "geometry": { "type": "Point", "coordinates": [ -74.00493762277479, 40.749043722603204 ] } },
{ "type": "Feature", "properties": { "NAME": "Rosenberg & Kaufman Fine Art", "TEL": "(212) 431-4838", "URL": "http:\/\/www.robertkuszek.com\/", "ADDRESS1": "115 Wooster St", "ADDRESS2": null, "CITY": "New York", "ZIP": 10012.000000 }, "geometry": { "type": "Point", "coordinates": [ -74.000709407205704, 40.725024970304041 ] } },
{ "type": "Feature", "properties": { "NAME": "Rosenberg Paul & Co", "TEL": "(212) 472-1134", "URL": "http:\/\/local.botw.org\/New_York\/New_York\/Rosenberg_Paul_and_Co\/11505286.html", "ADDRESS1": "20 E 79th St", "ADDRESS2": null, "CITY": "New York", "ZIP": 10021.000000 }, "geometry": { "type": "Point", "coordinates": [ -73.962515989372747, 40.776237956787099 ] } },
{ "type": "Feature", "properties": { "NAME": "Ross Luise Gallery", "TEL": "(212) 343-2161", "URL": "http:\/\/www.luiserossgallery.com\/", "ADDRESS1": "511 West 25 Street", "ADDRESS2": null, "CITY": "New York", "ZIP": 10001.000000 }, "geometry": { "type": "Point", "coordinates": [ -74.003917521093157, 40.749457915360779 ] } },
{ "type": "Feature", "properties": { "NAME": "Roth", "TEL": "(212) 717-9067", "URL": "http:\/\/www.andrewroth.com\/", "ADDRESS1": "160A E 70th St", "ADDRESS2": null, "CITY": "New York", "ZIP": 10021.000000 }, "geometry": { "type": "Point", "coordinates": [ -73.962537163174247, 40.768839632183543 ] } },
{ "type": "Feature", "properties": { "NAME": "Rotunda Gallery", "TEL": "(718) 875-4047", "URL": "http:\/\/www.nyc-arts.org\/organizations\/1668\/rotunda-gallery", "ADDRESS1": "33 Clinton St", "ADDRESS2": null, "CITY": "Brooklyn", "ZIP": 11201.000000 }, "geometry": { "type": "Point", "coordinates": [ -73.991467993829929, 40.695157338412024 ] } },
{ "type": "Feature", "properties": { "NAME": "Royal Fine Art", "TEL": "(212) 452-4297", "URL": "http:\/\/m.nyc.com\/arts__attractions\/royal_fine_art.361\/map_location.aspx", "ADDRESS1": "1158 Lexington Ave", "ADDRESS2": null, "CITY": "New York", "ZIP": 10021.000000 }, "geometry": { "type": "Point", "coordinates": [ -73.958687413675193, 40.775508885847394 ] } },
{ "type": "Feature", "properties": { "NAME": "Royal-Athena Galleries", "TEL": "(212) 355-2033", "URL": "http:\/\/www.royalathena.com\/", "ADDRESS1": "153 E 57th St", "ADDRESS2": "Ph", "CITY": "New York", "ZIP": 10022.000000 }, "geometry": { "type": "Point", "coordinates": [ -73.968049366591472, 40.760786110700714 ] } },
{ "type": "Feature", "properties": { "NAME": "Rudolph De Paola Art Gallery", "TEL": "(718) 238-6026", "URL": "http:\/\/www.merchantcircle.com\/business\/Rudolph.de.Paola.Art.Gallery.718-238-6026", "ADDRESS1": "6 Parrott Pl", "ADDRESS2": null, "CITY": "Brooklyn", "ZIP": 11228.000000 }, "geometry": { "type": "Point", "coordinates": [ -74.021724068523156, 40.617993496393865 ] } },
{ "type": "Feature", "properties": { "NAME": "Ruesch Jeffrey Fine Arts", "TEL": "(212) 925-1137", "URL": "http:\/\/www.rateitall.com\/i-410032-ruesch-jeffrey-fine-arts.aspx", "ADDRESS1": "134 Spring St", "ADDRESS2": "Fl 2", "CITY": "New York", "ZIP": 10012.000000 }, "geometry": { "type": "Point", "coordinates": [ -74.001071308866699, 40.723824751757547 ] } },
{ "type": "Feature", "properties": { "NAME": "Russeck Gallery", "TEL": "(212) 475-9939", "URL": "http:\/\/local.botw.org\/New_York\/New_York\/Russeck_Gallery\/11582297.html", "ADDRESS1": "478 W Broadway", "ADDRESS2": null, "CITY": "New York", "ZIP": 10012.000000 }, "geometry": { "type": "Point", "coordinates": [ -74.000565322118078, 40.726793155644238 ] } },
{ "type": "Feature", "properties": { "NAME": "Russian World", "TEL": "(212) 399-6500", "URL": "http:\/\/www.nyc.com\/arts__attractions\/russian_world.1710\/map_location.aspx", "ADDRESS1": "18 W 55th St", "ADDRESS2": null, "CITY": "New York", "ZIP": 10019.000000 }, "geometry": { "type": "Point", "coordinates": [ -73.976047491645673, 40.761925740572366 ] } },
{ "type": "Feature", "properties": { "NAME": "S & A Art Gallery Inc", "TEL": "(212) 794-5251", "URL": "http:\/\/www.masterseek.com\/id\/48817904\/S-and-A-Art-Gallery.htm", "ADDRESS1": "1248 Lexington Ave", "ADDRESS2": null, "CITY": "New York", "ZIP": 10028.000000 }, "geometry": { "type": "Point", "coordinates": [ -73.956589345276569, 40.778446433456857 ] } },
{ "type": "Feature", "properties": { "NAME": "S 2 Editions Ltd", "TEL": "(212) 206-7345", "URL": "http:\/\/www.nyc.com\/arts__attractions\/s_2_editions_ltd.958\/editorial_review.aspx", "ADDRESS1": "155 Ave of the Americas", "ADDRESS2": null, "CITY": "New York", "ZIP": 10013.000000 }, "geometry": { "type": "Point", "coordinates": [ -74.004792262015016, 40.725294811167387 ] } },
{ "type": "Feature", "properties": { "NAME": "S E Art & Design Inc", "TEL": "(212) 980-1914", "URL": "http:\/\/www.seartanddesign.com\/contactus.html", "ADDRESS1": "232 E 59th St", "ADDRESS2": null, "CITY": "New York", "ZIP": 10022.000000 }, "geometry": { "type": "Point", "coordinates": [ -73.965238008369226, 40.760745452063119 ] } },
{ "type": "Feature", "properties": { "NAME": "Sabarsky Serge Gallery", "TEL": "(212) 628-6281", "URL": "http:\/\/local.botw.org\/New_York\/New_York\/Sabarsky_Serge_Gallery\/11637783.html", "ADDRESS1": "58 E 79th St", "ADDRESS2": null, "CITY": "New York", "ZIP": 10021.000000 }, "geometry": { "type": "Point", "coordinates": [ -73.96160396765994, 40.775892728887619 ] } },
{ "type": "Feature", "properties": { "NAME": "Sabbatique Ltd", "TEL": "(212) 213-9344", "URL": "http:\/\/www.sabbatiqueltd.com\/contact.htm", "ADDRESS1": "10 Waterside Plz", "ADDRESS2": null, "CITY": "New York", "ZIP": 10010.000000 }, "geometry": { "type": "Point", "coordinates": [ -73.973980037034465, 40.736844518419964 ] } },
{ "type": "Feature", "properties": { "NAME": "Sabrina Enterprise.Com Artworks Sales and Rprdctns", "TEL": "(718) 335-5088", "URL": "http:\/\/www.nyc.com\/arts__attractions\/sabrina_enterprisecom_artworks_sales_and_rprdctns.1874\/editorial_review.aspx", "ADDRESS1": "10022 32nd Ave", "ADDRESS2": null, "CITY": "East Elmhurst", "ZIP": 11369.000000 }, "geometry": { "type": "Point", "coordinates": [ -73.867907252130095, 40.759058638047826 ] } },
{ "type": "Feature", "properties": { "NAME": "Sacks Fine Art", "TEL": "(212) 333-7755", "URL": "http:\/\/sacksfineart.com\/", "ADDRESS1": "229 East 60th Street", "ADDRESS2": null, "CITY": "New York", "ZIP": 10022.000000 }, "geometry": { "type": "Point", "coordinates": [ -73.964753806990487, 40.761827888826183 ] } },
{ "type": "Feature", "properties": { "NAME": "Safani Gallery Inc", "TEL": "(212) 570-6360", "URL": "http:\/\/local.botw.org\/New_York\/New_York\/Safani_Gallery_Inc\/56446980.html", "ADDRESS1": "980 Madison Ave", "ADDRESS2": null, "CITY": "New York", "ZIP": 10021.000000 }, "geometry": { "type": "Point", "coordinates": [ -73.963698409241175, 40.774832935270197 ] } },
{ "type": "Feature", "properties": { "NAME": "Salz Trager Janet", "TEL": "(212) 744-6080", "URL": "http:\/\/metroproper.com\/business\/profile\/view\/&id=59220", "ADDRESS1": "700 Park Ave", "ADDRESS2": null, "CITY": "New York", "ZIP": 10021.000000 }, "geometry": { "type": "Point", "coordinates": [ -73.965509662749511, 40.769540410959813 ] } },
{ "type": "Feature", "properties": { "NAME": "Sam's Souk", "TEL": "(212) 535-7210", "URL": "http:\/\/www.manta.com\/coms2\/dnbcompany_8m39fn", "ADDRESS1": "979 Lexington Ave", "ADDRESS2": null, "CITY": "New York", "ZIP": 10021.000000 }, "geometry": { "type": "Point", "coordinates": [ -73.962531506554001, 40.769456007897823 ] } },
{ "type": "Feature", "properties": { "NAME": "Sanada Ikkanart Intl", "TEL": "(212) 734-3055", "URL": "http:\/\/local.botw.org\/New_York\/New_York\/Sanada_Ikkanart_Intl\/154034137.html", "ADDRESS1": "30 E 85th St", "ADDRESS2": null, "CITY": "New York", "ZIP": 10028.000000 }, "geometry": { "type": "Point", "coordinates": [ -73.959777837681045, 40.780076517873518 ] } },
{ "type": "Feature", "properties": { "NAME": "Sands & Company Inc Fine Art At Madison Av", "TEL": "(212) 988-3900", "URL": "http:\/\/www.nyc.com\/arts__attractions\/sands__company_inc_fine_art_at_madison_av.848\/editorial_review.aspx", "ADDRESS1": "30 E 76th St", "ADDRESS2": null, "CITY": "New York", "ZIP": 10021.000000 }, "geometry": { "type": "Point", "coordinates": [ -73.963421940034578, 40.774137804658352 ] } },
{ "type": "Feature", "properties": { "NAME": "Sara Meltzer On View", "TEL": "(212) 343-8256", "URL": "http:\/\/www.sarameltzergallery.com\/artist.php?artist=tallichet&p=cv", "ADDRESS1": "588 Broadway", "ADDRESS2": "#612", "CITY": "New York", "ZIP": 10012.000000 }, "geometry": { "type": "Point", "coordinates": [ -73.997093625468096, 40.724700860582779 ] } },
{ "type": "Feature", "properties": { "NAME": "Sarafina Inc", "TEL": "(718) 522-1083", "URL": "http:\/\/m.nyc.com\/arts__attractions\/sarafina_inc.739\/whats_nearby.aspx?sec=att", "ADDRESS1": "411 Myrtle Ave", "ADDRESS2": null, "CITY": "Brooklyn", "ZIP": 11205.000000 }, "geometry": { "type": "Point", "coordinates": [ -73.969372683918664, 40.69329478591213 ] } },
{ "type": "Feature", "properties": { "NAME": "Sarajo Inc", "TEL": "(212) 966-6156", "URL": "http:\/\/www.yelp.com\/biz\/sarajo-inc-new-york", "ADDRESS1": "130 Greene St", "ADDRESS2": null, "CITY": "New York", "ZIP": 10012.000000 }, "geometry": { "type": "Point", "coordinates": [ -73.998801774294506, 40.725271069086524 ] } },
{ "type": "Feature", "properties": { "NAME": "Sarina Tang Fine Art", "TEL": "(212) 242-9001", "URL": "http:\/\/web2.userinstinct.com\/30817016-sarina-tang-fine-art.htm", "ADDRESS1": "535 W 23rd St", "ADDRESS2": null, "CITY": "New York", "ZIP": 10011.000000 }, "geometry": { "type": "Point", "coordinates": [ -74.005254775778468, 40.748410755417027 ] } },
{ "type": "Feature", "properties": { "NAME": "Savacou Galleries", "TEL": "(212) 473-6904", "URL": "http:\/\/www.artchain.com\/cgi-bin\/showorganization.cgi?org=150", "ADDRESS1": "240 E 13th St", "ADDRESS2": null, "CITY": "New York", "ZIP": 10003.000000 }, "geometry": { "type": "Point", "coordinates": [ -73.986268360158746, 40.731782175235843 ] } },
{ "type": "Feature", "properties": { "NAME": "Sayn-Wittgenstein", "TEL": "(212) 288-1493", "URL": "http:\/\/www.sw-fineart.com\/", "ADDRESS1": "155 E 72nd St", "ADDRESS2": null, "CITY": "New York", "ZIP": 10021.000000 }, "geometry": { "type": "Point", "coordinates": [ -73.961410273794996, 40.77036690856999 ] } },
{ "type": "Feature", "properties": { "NAME": "Schellmann Editions", "TEL": "(212) 219-1821", "URL": "http:\/\/www.editionschellmann.com\/", "ADDRESS1": "210 11th Ave", "ADDRESS2": null, "CITY": "New York", "ZIP": 10001.000000 }, "geometry": { "type": "Point", "coordinates": [ -74.005854618467296, 40.749826941600091 ] } },
{ "type": "Feature", "properties": { "NAME": "Schickler Howard Fine Art", "TEL": "(212) 431-6363", "URL": "http:\/\/www.schicklerart.com\/", "ADDRESS1": "100 Water St", "ADDRESS2": null, "CITY": "Brooklyn", "ZIP": 11201.000000 }, "geometry": { "type": "Point", "coordinates": [ -73.989923019107849, 40.702874715663526 ] } },
{ "type": "Feature", "properties": { "NAME": "Schillay Fine Art", "TEL": "(212) 861-8353", "URL": "http:\/\/www.schillay.com\/contact.html", "ADDRESS1": "520 E 72nd St", "ADDRESS2": null, "CITY": "New York", "ZIP": 10021.000000 }, "geometry": { "type": "Point", "coordinates": [ -73.952675375124315, 40.766139260356816 ] } },
{ "type": "Feature", "properties": { "NAME": "Schiller & Bodo Fine Art", "TEL": "(212) 772-8627", "URL": "http:\/\/www.schillerandbodo.com\/", "ADDRESS1": "120 E 65th St", "ADDRESS2": null, "CITY": "New York", "ZIP": 10021.000000 }, "geometry": { "type": "Point", "coordinates": [ -73.966287426936915, 40.766120665031004 ] } },
{ "type": "Feature", "properties": { "NAME": "Schlesinger Gallery", "TEL": "(212) 734-3600", "URL": "http:\/\/newyork.maplist.org\/viewthread.php?tid=442872", "ADDRESS1": "24 E 73rd St", "ADDRESS2": null, "CITY": "New York", "ZIP": 10021.000000 }, "geometry": { "type": "Point", "coordinates": [ -73.965474371518127, 40.772458917059375 ] } },
{ "type": "Feature", "properties": { "NAME": "Scholten Japanese Art", "TEL": "(212) 585-0474", "URL": "http:\/\/www.artinfo.com\/galleryguide\/19648\/6194\/scholten-japanese-art-new-york\/inventory\/", "ADDRESS1": "63 E 66th St", "ADDRESS2": null, "CITY": "New York", "ZIP": 10021.000000 }, "geometry": { "type": "Point", "coordinates": [ -73.967071560948952, 40.767717539987764 ] } },
{ "type": "Feature", "properties": { "NAME": "Schonfeld R D & Co Inc", "TEL": "(212) 755-7005", "URL": "http:\/\/www.nyc.com\/arts__attractions\/schonfeld_r_d__co_inc.288\/whats_nearby.aspx", "ADDRESS1": "349 E 49th St", "ADDRESS2": "Apt 6B", "CITY": "New York", "ZIP": 10017.000000 }, "geometry": { "type": "Point", "coordinates": [ -73.966985179884446, 40.753635380576931 ] } },
{ "type": "Feature", "properties": { "NAME": "Sculpture Center", "TEL": "(718) 361-1750", "URL": "http:\/\/www.sculpture-center.org\/", "ADDRESS1": "44-19 Purves St", "ADDRESS2": null, "CITY": "Long Island City", "ZIP": 11101.000000 }, "geometry": { "type": "Point", "coordinates": [ -73.940814266247912, 40.746921327464989 ] } },
{ "type": "Feature", "properties": { "NAME": "Sean Kelly Inc", "TEL": "(212) 239-1181", "URL": "http:\/\/www.skny.com\/", "ADDRESS1": "526 W 29th St", "ADDRESS2": null, "CITY": "New York", "ZIP": 10001.000000 }, "geometry": { "type": "Point", "coordinates": [ -74.003068791679652, 40.751883820196809 ] } },
{ "type": "Feature", "properties": { "NAME": "Sears-Peyton Gallery", "TEL": "(212) 966-7469", "URL": "http:\/\/www.searspeyton.com\/html\/home.asp", "ADDRESS1": "210 11th Ave", "ADDRESS2": null, "CITY": "New York", "ZIP": 10001.000000 }, "geometry": { "type": "Point", "coordinates": [ -74.005799126305845, 40.749917390328044 ] } },
{ "type": "Feature", "properties": { "NAME": "Seaside Summer Concert Series Inc", "TEL": "(718) 469-1912", "URL": "http:\/\/www.nyc.com\/arts__attractions\/seaside_summer_concert_series_inc.1588\/editorial_review.aspx", "ADDRESS1": "572 Flatbush Ave", "ADDRESS2": null, "CITY": "Brooklyn", "ZIP": 11225.000000 }, "geometry": { "type": "Point", "coordinates": [ -73.96089003981632, 40.659682681852594 ] } },
{ "type": "Feature", "properties": { "NAME": "Second Ave Art Expo", "TEL": "(212) 223-9095", "URL": "http:\/\/www.merchantcircle.com\/business\/Second.Ave.Art.Expo.212-223-9095", "ADDRESS1": "980 2nd Ave", "ADDRESS2": null, "CITY": "New York", "ZIP": 10022.000000 }, "geometry": { "type": "Point", "coordinates": [ -73.96741088497609, 40.755831415773663 ] } },
{ "type": "Feature", "properties": { "NAME": "Seibold Eleanor", "TEL": "(212) 988-4731", "URL": "http:\/\/www.nyc.com\/arts__attractions\/seibold_eleanor.1833\/map_location.aspx", "ADDRESS1": "1601 York Ave", "ADDRESS2": null, "CITY": "New York", "ZIP": 10028.000000 }, "geometry": { "type": "Point", "coordinates": [ -73.948079672108989, 40.77506696449548 ] } },
{ "type": "Feature", "properties": { "NAME": "Senior & Shopmaker", "TEL": "(212) 213-6767", "URL": "http:\/\/www.seniorandshopmaker.com\/", "ADDRESS1": "21 E 26th St", "ADDRESS2": null, "CITY": "New York", "ZIP": 10010.000000 }, "geometry": { "type": "Point", "coordinates": [ -73.986817346500928, 40.743273304869838 ] } },
{ "type": "Feature", "properties": { "NAME": "Sepia International Inc the", "TEL": "(212) 645-9444", "URL": "http:\/\/www.sepia.org\/", "ADDRESS1": "148 W 24th St", "ADDRESS2": "Fl 11", "CITY": "New York", "ZIP": 10011.000000 }, "geometry": { "type": "Point", "coordinates": [ -73.994502699312662, 40.744250129684339 ] } },
{ "type": "Feature", "properties": { "NAME": "Serbin Inna", "TEL": "(212) 249-5252", "URL": "http:\/\/www.nyc.com\/arts__attractions\/serbin_inna.1675\/whats_nearby.aspx", "ADDRESS1": "342 E 77th St", "ADDRESS2": null, "CITY": "New York", "ZIP": 10021.000000 }, "geometry": { "type": "Point", "coordinates": [ -73.954405666133496, 40.771111865592218 ] } },
{ "type": "Feature", "properties": { "NAME": "Serger Helen La Boetie", "TEL": "(212) 535-4865", "URL": "http:\/\/boundlessgallery.com\/directory\/gallery\/618\/Helen-Serger-LA-Boetie", "ADDRESS1": "9 E 82ND ST", "ADDRESS2": "STE 3A", "CITY": "New York", "ZIP": 10028.000000 }, "geometry": { "type": "Point", "coordinates": [ -73.961225921652925, 40.778755546237647 ] } },
{ "type": "Feature", "properties": { "NAME": "Seven Colors", "TEL": "(212) 681-9091", "URL": "http:\/\/www.livevillage.com\/newyork\/art\/seven-colors.html", "ADDRESS1": "555 5th Ave", "ADDRESS2": null, "CITY": "New York", "ZIP": 10017.000000 }, "geometry": { "type": "Point", "coordinates": [ -73.978823437246987, 40.755678044060957 ] } },
{ "type": "Feature", "properties": { "NAME": "Shades of Art", "TEL": "(718) 834-0084", "URL": "http:\/\/www.merchantcircle.com\/business\/Shades.of.Art.718-834-0084", "ADDRESS1": "47 Flatbush Ave", "ADDRESS2": null, "CITY": "Brooklyn", "ZIP": 11217.000000 }, "geometry": { "type": "Point", "coordinates": [ -73.979493837412889, 40.687533054660804 ] } },
{ "type": "Feature", "properties": { "NAME": "Shainman Jack Gallery", "TEL": "(212) 645-1701", "URL": "http:\/\/www.jackshainman.com\/", "ADDRESS1": "513 W 20th St", "ADDRESS2": null, "CITY": "New York", "ZIP": 10011.000000 }, "geometry": { "type": "Point", "coordinates": [ -74.006263402562936, 40.746365547103572 ] } },
{ "type": "Feature", "properties": { "NAME": "Shapolsky Anita Gallery", "TEL": "(212) 452-1094", "URL": "http:\/\/www.anitashapolskygallery.com\/", "ADDRESS1": "152 E 65th St", "ADDRESS2": null, "CITY": "New York", "ZIP": 10021.000000 }, "geometry": { "type": "Point", "coordinates": [ -73.964559766438356, 40.765395745129169 ] } },
{ "type": "Feature", "properties": { "NAME": "Shawn Dulaney Studio", "TEL": "(212) 255-7986", "URL": "http:\/\/www.shawndulaney.com\/", "ADDRESS1": "34 W 22nd St", "ADDRESS2": null, "CITY": "New York", "ZIP": 10010.000000 }, "geometry": { "type": "Point", "coordinates": [ -73.992055668653947, 40.741471869116829 ] } },
{ "type": "Feature", "properties": { "NAME": "Shepherd & Derom Galleries", "TEL": "(212) 861-4050", "URL": "http:\/\/www.shepherdgallery.com\/feature.html", "ADDRESS1": "58 E 79th St", "ADDRESS2": null, "CITY": "New York", "ZIP": 10021.000000 }, "geometry": { "type": "Point", "coordinates": [ -73.961666532832467, 40.775793987092975 ] } },
{ "type": "Feature", "properties": { "NAME": "Shickman H Gallery", "TEL": "(212) 249-3800", "URL": "http:\/\/whrrl.com\/place\/1220422\/shickman-h-gallery-new-york", "ADDRESS1": "220 E 72nd St", "ADDRESS2": null, "CITY": "New York", "ZIP": 10021.000000 }, "geometry": { "type": "Point", "coordinates": [ -73.95972631317872, 40.769017683348757 ] } },
{ "type": "Feature", "properties": { "NAME": "Shulman B & M Inc", "TEL": "(718) 646-6022", "URL": "http:\/\/brooklyn.citysearch.com\/profile\/601893311\/brooklyn_ny\/b_m_shulman_inc.html", "ADDRESS1": "2623 Avenue U", "ADDRESS2": null, "CITY": "Brooklyn", "ZIP": 11229.000000 }, "geometry": { "type": "Point", "coordinates": [ -73.945065482895146, 40.600273523844407 ] } },
{ "type": "Feature", "properties": { "NAME": "Sigrid Freundorfer Fine Art", "TEL": "(212) 517-9700", "URL": "http:\/\/oneartworld.com\/Sigrid+Freundorfer+Fine+Art.html", "ADDRESS1": "790 Madison Ave", "ADDRESS2": null, "CITY": "New York", "ZIP": 10021.000000 }, "geometry": { "type": "Point", "coordinates": [ -73.968095925870529, 40.768483226576777 ] } },
{ "type": "Feature", "properties": { "NAME": "Silverstein Gallery Inc", "TEL": "(212) 929-4300", "URL": "http:\/\/gallerydriver.com\/?method=Gallery.GalleryDetail&GalleryID=489CC5FF-3048-28EB-9213D9BD1A052B8E", "ADDRESS1": "520 West 21st St", "ADDRESS2": null, "CITY": "New York", "ZIP": 10011.000000 }, "geometry": { "type": "Point", "coordinates": [ -74.006103918392014, 40.746586695729775 ] } },
{ "type": "Feature", "properties": { "NAME": "Simply Marvelous Art", "TEL": "(718) 291-9862", "URL": "http:\/\/www.simplymarvelousart.com\/", "ADDRESS1": "159-15 Jamaica Ave", "ADDRESS2": null, "CITY": "Jamaica", "ZIP": 11432.000000 }, "geometry": { "type": "Point", "coordinates": [ -73.799756553299503, 40.704122205554114 ] } },
{ "type": "Feature", "properties": { "NAME": "Skoto Gallery", "TEL": "(212) 352-8058", "URL": "http:\/\/www.skotogallery.com\/homepage", "ADDRESS1": "529 W 20th St", "ADDRESS2": null, "CITY": "New York", "ZIP": 10011.000000 }, "geometry": { "type": "Point", "coordinates": [ -74.006850300553381, 40.746676581928199 ] } },
{ "type": "Feature", "properties": { "NAME": "Sloan McGill Collection", "TEL": "(718) 469-1930", "URL": "http:\/\/www.nyc.com\/arts__attractions\/sloan_mcgill_collection.1894\/editorial_review.aspx", "ADDRESS1": "150 Midwood St", "ADDRESS2": null, "CITY": "Brooklyn", "ZIP": 11225.000000 }, "geometry": { "type": "Point", "coordinates": [ -73.955650841329316, 40.6596151344134 ] } },
{ "type": "Feature", "properties": { "NAME": "Smack Mellon Studios", "TEL": "(718) 422-0989", "URL": "http:\/\/www.smackmellon.org\/", "ADDRESS1": "92 Plymouth St", "ADDRESS2": null, "CITY": "Brooklyn", "ZIP": 11201.000000 }, "geometry": { "type": "Point", "coordinates": [ -73.989859724204251, 40.703750736898968 ] } },
{ "type": "Feature", "properties": { "NAME": "Smith Gallery", "TEL": "(212) 744-6171", "URL": "http:\/\/www.nyc.com\/arts__attractions\/smith_gallery.185\/editorial_review.aspx", "ADDRESS1": "447 W 24th St", "ADDRESS2": null, "CITY": "New York", "ZIP": 10011.000000 }, "geometry": { "type": "Point", "coordinates": [ -74.002657754833081, 40.748146010251695 ] } },
{ "type": "Feature", "properties": { "NAME": "Society For Renewal of Christian Art", "TEL": "(212) 288-8186", "URL": "http:\/\/www.nyc.com\/arts__attractions\/society_for_renewal_of_christian_art.340\/editorial_review.aspx", "ADDRESS1": "217 E 66th St", "ADDRESS2": null, "CITY": "New York", "ZIP": 10021.000000 }, "geometry": { "type": "Point", "coordinates": [ -73.962190734943562, 40.765647029598988 ] } },
{ "type": "Feature", "properties": { "NAME": "Soho 20", "TEL": "(212) 367-8994", "URL": "http:\/\/www.soho20gallery.com\/New\/exhibitions.html", "ADDRESS1": "511 W 25th St", "ADDRESS2": null, "CITY": "New York", "ZIP": 10001.000000 }, "geometry": { "type": "Point", "coordinates": [ -74.003832573071222, 40.749481175588038 ] } },
{ "type": "Feature", "properties": { "NAME": "Soho Photo Gallery", "TEL": "(212) 226-8571", "URL": "http:\/\/www.sohophoto.com\/", "ADDRESS1": "15 White St", "ADDRESS2": null, "CITY": "New York", "ZIP": 10013.000000 }, "geometry": { "type": "Point", "coordinates": [ -74.005556332655033, 40.718964186297626 ] } },
{ "type": "Feature", "properties": { "NAME": "Soldwedel Kipp", "TEL": "(212) 759-1175", "URL": "http:\/\/www.ziphip.com\/soldwedel+kipp.9.7196845p.home.html", "ADDRESS1": "470 Park Ave", "ADDRESS2": null, "CITY": "New York", "ZIP": 10022.000000 }, "geometry": { "type": "Point", "coordinates": [ -73.970742003707798, 40.762241922437113 ] } },
{ "type": "Feature", "properties": { "NAME": "Soloman & Co Fine Art Gallerie", "TEL": "(212) 737-8200", "URL": "http:\/\/gallerydriver.com\/?method=Gallery.GalleryDetail&GalleryID=489DA839-3048-28EB-923E97BA2BE7589F", "ADDRESS1": "959 Madison Ave", "ADDRESS2": null, "CITY": "New York", "ZIP": 10021.000000 }, "geometry": { "type": "Point", "coordinates": [ -73.963524610821651, 40.773834852209063 ] } },
{ "type": "Feature", "properties": { "NAME": "Sonnabend Gallery Inc", "TEL": "(212) 627-1018", "URL": "http:\/\/www.artnet.com\/sonnabend.html", "ADDRESS1": "532 W 22nd St", "ADDRESS2": null, "CITY": "New York", "ZIP": 10011.000000 }, "geometry": { "type": "Point", "coordinates": [ -74.006404332688589, 40.747532873856052 ] } },
{ "type": "Feature", "properties": { "NAME": "Soufer Gallery", "TEL": "(212) 628-3225", "URL": "http:\/\/www.soufergallery.com\/", "ADDRESS1": "1015 Madison Ave", "ADDRESS2": null, "CITY": "New York", "ZIP": 10075.000000 }, "geometry": { "type": "Point", "coordinates": [ -73.962190933646809, 40.775784911289946 ] } },
{ "type": "Feature", "properties": { "NAME": "Spencer Brownstone Gallery", "TEL": "(212) 334-3455", "URL": "http:\/\/www.spencerbrownstonegallery.com\/000mailing.html", "ADDRESS1": "39 Wooster St.", "ADDRESS2": null, "CITY": "New York", "ZIP": 10013.000000 }, "geometry": { "type": "Point", "coordinates": [ -74.002851954627644, 40.722592905701241 ] } },
{ "type": "Feature", "properties": { "NAME": "Sperone Westwater", "TEL": "(212) 253-0648", "URL": "http:\/\/www.speronewestwater.com\/cgi-bin\/iowa\/index.html", "ADDRESS1": "121 Greene St", "ADDRESS2": null, "CITY": "New York", "ZIP": 10012.000000 }, "geometry": { "type": "Point", "coordinates": [ -73.999262395808316, 40.725443409682597 ] } },
{ "type": "Feature", "properties": { "NAME": "Spring", "TEL": "(718) 222-1054", "URL": "http:\/\/www.spring3d.net\/", "ADDRESS1": "126 Front St", "ADDRESS2": null, "CITY": "Brooklyn", "ZIP": 11201.000000 }, "geometry": { "type": "Point", "coordinates": [ -73.987395808803853, 40.702248276877604 ] } },
{ "type": "Feature", "properties": { "NAME": "Sragow Ellen Ltd", "TEL": "(212) 219-1793", "URL": "http:\/\/www.sragowgallery.com\/", "ADDRESS1": "153 West 27th Street", "ADDRESS2": "Room #505", "CITY": "New York", "ZIP": 10001.000000 }, "geometry": { "type": "Point", "coordinates": [ -73.993024904289598, 40.746521764779729 ] } },
{ "type": "Feature", "properties": { "NAME": "St Etienne Galerie", "TEL": "(212) 245-6734", "URL": "http:\/\/www.gseart.com\/", "ADDRESS1": "24 W 57th St", "ADDRESS2": null, "CITY": "New York", "ZIP": 10019.000000 }, "geometry": { "type": "Point", "coordinates": [ -73.975628401910271, 40.763318150279019 ] } },
{ "type": "Feature", "properties": { "NAME": "Staley-Wise Gallery", "TEL": "(212) 966-6223", "URL": "http:\/\/www.staleywise.com", "ADDRESS1": "560 Broadway", "ADDRESS2": null, "CITY": "New York", "ZIP": 10012.000000 }, "geometry": { "type": "Point", "coordinates": [ -73.997670093025448, 40.723883250060197 ] } },
{ "type": "Feature", "properties": { "NAME": "Start", "TEL": "(212) 431-2414", "URL": "http:\/\/www.livevillage.com\/newyork\/art\/start.html", "ADDRESS1": "50 Greene St", "ADDRESS2": null, "CITY": "New York", "ZIP": 10013.000000 }, "geometry": { "type": "Point", "coordinates": [ -74.001581030550994, 40.721988338033576 ] } },
{ "type": "Feature", "properties": { "NAME": "State of Art", "TEL": "(718) 349-7250", "URL": "http:\/\/www.merchantcircle.com\/blogs\/State.of.Art.718-349-7250", "ADDRESS1": "113 Franklin St", "ADDRESS2": null, "CITY": "Brooklyn", "ZIP": 11222.000000 }, "geometry": { "type": "Point", "coordinates": [ -73.957915173595893, 40.730221217776354 ] } },
{ "type": "Feature", "properties": { "NAME": "Steigrad Lawrence Fine Arts", "TEL": "(212) 517-3643", "URL": "http:\/\/www.steigrad.com\/", "ADDRESS1": "23 E 69th St", "ADDRESS2": "# 4F", "CITY": "New York", "ZIP": 10021.000000 }, "geometry": { "type": "Point", "coordinates": [ -73.96622595705449, 40.769820128615109 ] } },
{ "type": "Feature", "properties": { "NAME": "Stein Gertrude Gallery", "TEL": "(212) 535-0600", "URL": "http:\/\/www.gallerygertrudestein.com\/contact.htm", "ADDRESS1": "200 West 57th Street", "ADDRESS2": null, "CITY": "New York", "ZIP": 10019.000000 }, "geometry": { "type": "Point", "coordinates": [ -73.980497538701286, 40.765444889356793 ] } },
{ "type": "Feature", "properties": { "NAME": "Stephen Downes Gallery", "TEL": "(212) 274-9194", "URL": "http:\/\/www.nyc.com\/arts__attractions\/stephen_downes_gallery.263\/editorial_review.aspx", "ADDRESS1": "377 Broome St", "ADDRESS2": null, "CITY": "New York", "ZIP": 10013.000000 }, "geometry": { "type": "Point", "coordinates": [ -73.996472970581479, 40.72012487216584 ] } },
{ "type": "Feature", "properties": { "NAME": "Stewart Waltzer Co", "TEL": "(212) 675-4949", "URL": "http:\/\/www.manta.com\/coms2\/dnbcompany_jr0lm4", "ADDRESS1": "200 W Houston St", "ADDRESS2": "Apt 3D", "CITY": "New York", "ZIP": 10014.000000 }, "geometry": { "type": "Point", "coordinates": [ -74.003940897053965, 40.728713527212371 ] } },
{ "type": "Feature", "properties": { "NAME": "Storefront For Art and Architecture", "TEL": "(212) 431-5795", "URL": "http:\/\/www.storefrontnews.org\/", "ADDRESS1": "97 Kenmare St", "ADDRESS2": null, "CITY": "New York", "ZIP": 10012.000000 }, "geometry": { "type": "Point", "coordinates": [ -73.997068297375137, 40.721477428204516 ] } },
{ "type": "Feature", "properties": { "NAME": "Stricoff Fine Art, Ltd.", "TEL": "(212) 219-3977", "URL": "http:\/\/www.stricoff.com\/", "ADDRESS1": "564 W 25th St", "ADDRESS2": null, "CITY": "New York", "ZIP": 10001.000000 }, "geometry": { "type": "Point", "coordinates": [ -74.00571077709985, 40.749893275589997 ] } },
{ "type": "Feature", "properties": { "NAME": "Studio Gallery", "TEL": "(212) 579-4654", "URL": "http:\/\/www.merchantcircle.com\/business\/Studio.Gallery.212-579-4654", "ADDRESS1": "205 W 88th St", "ADDRESS2": null, "CITY": "New York", "ZIP": 10024.000000 }, "geometry": { "type": "Point", "coordinates": [ -73.974285480239516, 40.789334829060181 ] } },
{ "type": "Feature", "properties": { "NAME": "Studio Tamar", "TEL": "(212) 529-4247", "URL": "http:\/\/www.upspring.com\/studio-tamar-new-york-ny.html", "ADDRESS1": "152 E 22nd St", "ADDRESS2": null, "CITY": "New York", "ZIP": 10010.000000 }, "geometry": { "type": "Point", "coordinates": [ -73.984297658553544, 40.738215520938084 ] } },
{ "type": "Feature", "properties": { "NAME": "Stux Gallery", "TEL": "(212) 352-1600", "URL": "http:\/\/www.stuxgallery.com", "ADDRESS1": "530 W 25th St", "ADDRESS2": null, "CITY": "New York", "ZIP": 10001.000000 }, "geometry": { "type": "Point", "coordinates": [ -74.00480919659185, 40.749322387840614 ] } },
{ "type": "Feature", "properties": { "NAME": "Sugarhill Arts Center", "TEL": "(212) 491-5890", "URL": "http:\/\/www.theartproject.net\/pages\/126yp_awaken.htm", "ADDRESS1": "3658 Broadway", "ADDRESS2": null, "CITY": "New York", "ZIP": 10031.000000 }, "geometry": { "type": "Point", "coordinates": [ -73.947092665752365, 40.830220401900036 ] } },
{ "type": "Feature", "properties": { "NAME": "Suite 106", "TEL": "(212) 274-9166", "URL": "http:\/\/www.art-search.us\/listing\/22923\/suite-106-gallery", "ADDRESS1": "112 Mercer St", "ADDRESS2": null, "CITY": "New York", "ZIP": 10012.000000 }, "geometry": { "type": "Point", "coordinates": [ -73.998924310707366, 40.723596121418225 ] } },
{ "type": "Feature", "properties": { "NAME": "Sun Yi Jun", "TEL": "(212) 625-1910", "URL": "http:\/\/www.nyc.com\/arts__attractions\/sun_yi_jun.821\/editorial_review.aspx", "ADDRESS1": "83 Bowery", "ADDRESS2": null, "CITY": "New York", "ZIP": 10002.000000 }, "geometry": { "type": "Point", "coordinates": [ -73.995345809624439, 40.716762815291865 ] } },
{ "type": "Feature", "properties": { "NAME": "Susan Aberbach Fine Art", "TEL": "(212) 207-4600", "URL": "http:\/\/www.saberbach.com\/site.html", "ADDRESS1": "41 E 57th St", "ADDRESS2": null, "CITY": "New York", "ZIP": 10022.000000 }, "geometry": { "type": "Point", "coordinates": [ -73.971683888438065, 40.762289047955619 ] } },
{ "type": "Feature", "properties": { "NAME": "Susan Megson Gallery", "TEL": "(212) 254-8090", "URL": "http:\/\/web2.userinstinct.com\/31111920-susan-megson-gallery.htm", "ADDRESS1": "456 W Broadway", "ADDRESS2": null, "CITY": "New York", "ZIP": 10012.000000 }, "geometry": { "type": "Point", "coordinates": [ -74.000813209101437, 40.726249204445402 ] } },
{ "type": "Feature", "properties": { "NAME": "Susan Rolfe Associates Fine Arts Ltd", "TEL": "(212) 688-7184", "URL": "http:\/\/www.merchantcircle.com\/business\/Susan.Rolfe.Associates.Fine.Arts.Limited.212-688-7184", "ADDRESS1": "654 Madison Ave", "ADDRESS2": null, "CITY": "New York", "ZIP": 10021.000000 }, "geometry": { "type": "Point", "coordinates": [ -73.971110344311143, 40.764484301630723 ] } },
{ "type": "Feature", "properties": { "NAME": "Susan Sheehan Gallery", "TEL": "(212) 489-3331", "URL": "http:\/\/www.susansheehangallery.com\/", "ADDRESS1": "535 West 22nd Street", "ADDRESS2": "3rd Floor", "CITY": "New York", "ZIP": 10011.000000 }, "geometry": { "type": "Point", "coordinates": [ -74.006054815729982, 40.747911706928519 ] } },
{ "type": "Feature", "properties": { "NAME": "Sutherland M", "TEL": "(212) 249-0428", "URL": "http:\/\/www.artnet.com\/gallery\/155971\/m-sutherland-fine-arts-ltd.html", "ADDRESS1": "620 Park Ave", "ADDRESS2": null, "CITY": "New York", "ZIP": 10021.000000 }, "geometry": { "type": "Point", "coordinates": [ -73.967227790235654, 40.766960246471037 ] } },
{ "type": "Feature", "properties": { "NAME": "Swiss Institute", "TEL": "(212) 925-2035", "URL": "http:\/\/www.swissinstitute.net\/", "ADDRESS1": "495 Broadway", "ADDRESS2": "3rd Fl", "CITY": "New York", "ZIP": 10012.000000 }, "geometry": { "type": "Point", "coordinates": [ -74.000062893621859, 40.722247484877933 ] } },
{ "type": "Feature", "properties": { "NAME": "Taglialatella Dominic J", "TEL": "(212) 367-0881", "URL": "http:\/\/gallerydriver.com\/?method=Gallery.GalleryDetail&GalleryID=489CDBF0-3048-28EB-923E29A3CAFD93E0", "ADDRESS1": "511 West 25th Street", "ADDRESS2": "2nd Floor", "CITY": "New York", "ZIP": 10001.000000 }, "geometry": { "type": "Point", "coordinates": [ -74.00394584152609, 40.749525102049816 ] } },
{ "type": "Feature", "properties": { "NAME": "Takako Tsuji Gallery", "TEL": "(212) 231-1778", "URL": "http:\/\/trustedplaces.com\/review\/us\/ny\/new-york\/cultural\/1415l81\/takako-tsuji-gallery", "ADDRESS1": "41 E 57th St", "ADDRESS2": null, "CITY": "New York", "ZIP": 10022.000000 }, "geometry": { "type": "Point", "coordinates": [ -73.971737941654993, 40.762212046489267 ] } },
{ "type": "Feature", "properties": { "NAME": "Talwar Gallery", "TEL": "(212) 673-3096", "URL": "http:\/\/www.talwargallery.com\/", "ADDRESS1": "108 E 16th St", "ADDRESS2": "Fl 3", "CITY": "New York", "ZIP": 10003.000000 }, "geometry": { "type": "Point", "coordinates": [ -73.988827488257982, 40.735458145743657 ] } },
{ "type": "Feature", "properties": { "NAME": "Tambaran Gallery", "TEL": "(212) 570-0655", "URL": "http:\/\/www.tambaran.com\/", "ADDRESS1": "5 E 82nd St", "ADDRESS2": null, "CITY": "New York", "ZIP": 10028.000000 }, "geometry": { "type": "Point", "coordinates": [ -73.961398985648856, 40.778796687052584 ] } },
{ "type": "Feature", "properties": { "NAME": "Tang Sarina", "TEL": "(212) 517-7401", "URL": "http:\/\/www.merchantcircle.com\/business\/Tang.Sarina.212-517-7401", "ADDRESS1": "3 E 76th St", "ADDRESS2": null, "CITY": "New York", "ZIP": 10021.000000 }, "geometry": { "type": "Point", "coordinates": [ -73.964434136799227, 40.774990807616106 ] } },
{ "type": "Feature", "properties": { "NAME": "Tanya Bonakdar Galery", "TEL": "(646) 638-9471", "URL": "http:\/\/www.livevillage.com\/newyork\/art\/tanya-bonakdar-galery.html", "ADDRESS1": "521 W 21st St", "ADDRESS2": null, "CITY": "New York", "ZIP": 10011.000000 }, "geometry": { "type": "Point", "coordinates": [ -74.00619627853672, 40.747171878560067 ] } },
{ "type": "Feature", "properties": { "NAME": "Tate", "TEL": "(212) 242-9888", "URL": "http:\/\/www.yelp.com\/biz\/tate-new-york", "ADDRESS1": "413 W 14th St", "ADDRESS2": "Ste 3", "CITY": "New York", "ZIP": 10014.000000 }, "geometry": { "type": "Point", "coordinates": [ -74.006188261984605, 40.741608769285847 ] } },
{ "type": "Feature", "properties": { "NAME": "Tatistcheff Gallery Inc", "TEL": "(212) 664-0907", "URL": "http:\/\/www.artinfo.com\/galleryguide\/13109\/1619\/tatistcheff-gallery-new-york\/visit\/", "ADDRESS1": "529 West 20th Street", "ADDRESS2": "6th Floor", "CITY": "New York", "ZIP": 10011.000000 }, "geometry": { "type": "Point", "coordinates": [ -74.006949923436096, 40.74659365462886 ] } },
{ "type": "Feature", "properties": { "NAME": "Team Gallery", "TEL": "(212) 279-9219", "URL": "http:\/\/www.teamgal.com\/", "ADDRESS1": "527 W. 26th St.", "ADDRESS2": null, "CITY": "New York", "ZIP": 10001.000000 }, "geometry": { "type": "Point", "coordinates": [ -74.003937295502169, 40.750219541940496 ] } },
{ "type": "Feature", "properties": { "NAME": "Teller Susan Gallery", "TEL": "(212) 941-7335", "URL": "http:\/\/www.susantellergallery.com\/", "ADDRESS1": "568 Broadway", "ADDRESS2": null, "CITY": "New York", "ZIP": 10012.000000 }, "geometry": { "type": "Point", "coordinates": [ -73.997464363115469, 40.72429065859901 ] } },
{ "type": "Feature", "properties": { "NAME": "Tenri Cultural Institute", "TEL": "(212) 645-2800", "URL": "http:\/\/www.tenri.org\/", "ADDRESS1": "43A W. 13th St.", "ADDRESS2": "1st Fl.", "CITY": "New York", "ZIP": 10011.000000 }, "geometry": { "type": "Point", "coordinates": [ -73.996093620760405, 40.736402668765194 ] } },
{ "type": "Feature", "properties": { "NAME": "Thaw E V & Co", "TEL": "(212) 535-6333", "URL": "http:\/\/www.artinfo.com\/galleryguide\/12003\/489\/ev-thaw--co-inc\/visit\/", "ADDRESS1": "726 Park Ave", "ADDRESS2": "# 730", "CITY": "New York", "ZIP": 10021.000000 }, "geometry": { "type": "Point", "coordinates": [ -73.964871476863181, 40.770426226153305 ] } },
{ "type": "Feature", "properties": { "NAME": "The Affordable Art Fair Llc", "TEL": "(212) 255-2003", "URL": "http:\/\/www.nyc.com\/arts__attractions\/the_affordable_art_fair_llc.1679\/editorial_review.aspx", "ADDRESS1": "216 W 18th St", "ADDRESS2": "Ph", "CITY": "New York", "ZIP": 10011.000000 }, "geometry": { "type": "Point", "coordinates": [ -73.999070187344017, 40.741281452486191 ] } },
{ "type": "Feature", "properties": { "NAME": "The Axa Gallery", "TEL": "(212) 554-4818", "URL": "http:\/\/axagallery.com\/index.html", "ADDRESS1": "787 7th Ave", "ADDRESS2": null, "CITY": "New York", "ZIP": 10019.000000 }, "geometry": { "type": "Point", "coordinates": [ -73.981782802684876, 40.761694184547665 ] } },
{ "type": "Feature", "properties": { "NAME": "The Bohen Foundation", "TEL": "(212) 414-4575", "URL": "http:\/\/ny.citysquares.com\/manhattan\/meatpacking-district\/arts-entertainment\/artists-art-dealers\/the-bohen-foundation", "ADDRESS1": "415 W 13th St", "ADDRESS2": null, "CITY": "New York", "ZIP": 10014.000000 }, "geometry": { "type": "Point", "coordinates": [ -74.006502807037435, 40.740807961612759 ] } },
{ "type": "Feature", "properties": { "NAME": "The Chinese Art Gallery", "TEL": "(212) 759-1153", "URL": "http:\/\/www.411.info\/business\/New-York\/New-York\/The-Chinese-Art-Gallery-Ltd\/8957246-13714534.html", "ADDRESS1": "1050 2nd Ave", "ADDRESS2": null, "CITY": "New York", "ZIP": 10022.000000 }, "geometry": { "type": "Point", "coordinates": [ -73.965656949277943, 40.757955220360785 ] } },
{ "type": "Feature", "properties": { "NAME": "The Dollhaus Art Gallery", "TEL": "(718) 486-0330", "URL": "http:\/\/www.dollhaus.org\/press\/NYPress.htm", "ADDRESS1": "37 Broadway", "ADDRESS2": null, "CITY": "Brooklyn", "ZIP": 11211.000000 }, "geometry": { "type": "Point", "coordinates": [ -73.967287263669022, 40.710901835702877 ] } },
{ "type": "Feature", "properties": { "NAME": "The Gallery 172", "TEL": "(718) 861-3571", "URL": "http:\/\/www.elfwood.com", "ADDRESS1": "1620 E 172nd St", "ADDRESS2": null, "CITY": "Bronx", "ZIP": 10472.000000 }, "geometry": { "type": "Point", "coordinates": [ -73.874919398311832, 40.831580396853312 ] } },
{ "type": "Feature", "properties": { "NAME": "The Old Print Shop Inc", "TEL": "(212) 683-3950", "URL": "http:\/\/www.oldprintshop.com\/cgi-bin\/gallery.pl?action=exhibits&exhibit_id=53", "ADDRESS1": "150 Lexington Ave", "ADDRESS2": null, "CITY": "New York", "ZIP": 10016.000000 }, "geometry": { "type": "Point", "coordinates": [ -73.982107678823709, 40.74374126173867 ] } },
{ "type": "Feature", "properties": { "NAME": "The Phatory Llc", "TEL": "(212) 777-7922", "URL": "http:\/\/www.thephatory.com\/", "ADDRESS1": "618 E 9th St", "ADDRESS2": null, "CITY": "New York", "ZIP": 10009.000000 }, "geometry": { "type": "Point", "coordinates": [ -73.979474693303573, 40.725721658039468 ] } },
{ "type": "Feature", "properties": { "NAME": "The Q Department", "TEL": "(212) 219-3304", "URL": "http:\/\/www.qdepartment.com\/commercial.php", "ADDRESS1": "28 Howard St", "ADDRESS2": null, "CITY": "New York", "ZIP": 10013.000000 }, "geometry": { "type": "Point", "coordinates": [ -74.000367677151118, 40.71966311359467 ] } },
{ "type": "Feature", "properties": { "NAME": "The Scene Gallery", "TEL": "(212) 674-0508", "URL": "http:\/\/newyork.citysearch.com\/profile\/11583862\/new_york_ny\/the_scene_gallery.html", "ADDRESS1": "42 Rivington St", "ADDRESS2": null, "CITY": "New York", "ZIP": 10002.000000 }, "geometry": { "type": "Point", "coordinates": [ -73.990975171638169, 40.72106206156004 ] } },
{ "type": "Feature", "properties": { "NAME": "Thicket", "TEL": "(212) 343-2849", "URL": "http:\/\/outside.in\/tribeca-manhattan-ny\/thicket", "ADDRESS1": "10 Leonard St", "ADDRESS2": null, "CITY": "New York", "ZIP": 10013.000000 }, "geometry": { "type": "Point", "coordinates": [ -74.008249045758632, 40.718581224411494 ] } },
{ "type": "Feature", "properties": { "NAME": "Think Art Gallery", "TEL": "(212) 695-2006", "URL": "http:\/\/www.nyc.com\/arts__attractions\/think_art_gallery.1775\/editorial_review.aspx", "ADDRESS1": "336 W 37th St", "ADDRESS2": null, "CITY": "New York", "ZIP": 10018.000000 }, "geometry": { "type": "Point", "coordinates": [ -73.99403188876542, 40.754667215030068 ] } },
{ "type": "Feature", "properties": { "NAME": "Thomas & Hirsch", "TEL": "(212) 625-2011", "URL": "http:\/\/www.nyc.com\/arts__attractions\/thomas__hirsch.597\/map_location.aspx", "ADDRESS1": "375 W Broadway", "ADDRESS2": null, "CITY": "New York", "ZIP": 10012.000000 }, "geometry": { "type": "Point", "coordinates": [ -74.002284704891849, 40.723431242135781 ] } },
{ "type": "Feature", "properties": { "NAME": "Thomas Erben Gallery", "TEL": "(212) 645-8701", "URL": "http:\/\/www.thomaserben.com\/index.php", "ADDRESS1": "526 W 26th St", "ADDRESS2": null, "CITY": "New York", "ZIP": 10001.000000 }, "geometry": { "type": "Point", "coordinates": [ -74.004294011124401, 40.74989643756151 ] } },
{ "type": "Feature", "properties": { "NAME": "Thomson C Art", "TEL": "(212) 249-0242", "URL": "http:\/\/local.botw.org\/New_York\/New_York\/Thompson_C_Art\/141792657.html", "ADDRESS1": "19 E 75th St", "ADDRESS2": null, "CITY": "New York", "ZIP": 10021.000000 }, "geometry": { "type": "Point", "coordinates": [ -73.964309896817468, 40.77400673486742 ] } },
{ "type": "Feature", "properties": { "NAME": "Three East Third St Corp", "TEL": "(212) 533-7749", "URL": "http:\/\/ny.citysquares.com\/manhattan\/east-village\/arts-entertainment\/artists-art-dealers\/three-east-third-st-corp", "ADDRESS1": "3 E 3rd St", "ADDRESS2": null, "CITY": "New York", "ZIP": 10003.000000 }, "geometry": { "type": "Point", "coordinates": [ -73.991270360863382, 40.726317169194097 ] } },
{ "type": "Feature", "properties": { "NAME": "Throckmorton Fine Arts", "TEL": "(212) 223-1059", "URL": "http:\/\/www.throckmorton-nyc.com\/", "ADDRESS1": "145 E. 57th St.", "ADDRESS2": "3rd Fl.", "CITY": "New York", "ZIP": 10022.000000 }, "geometry": { "type": "Point", "coordinates": [ -73.968446896941927, 40.760948930642584 ] } },
{ "type": "Feature", "properties": { "NAME": "Tilton Jack Gallery", "TEL": "(212) 941-1775", "URL": "http:\/\/www.artseensoho.com\/Art\/TILTON\/tilton.html", "ADDRESS1": "47 Greene St", "ADDRESS2": null, "CITY": "New York", "ZIP": 10013.000000 }, "geometry": { "type": "Point", "coordinates": [ -74.002000579831403, 40.722250871439982 ] } },
{ "type": "Feature", "properties": { "NAME": "Time Is Always Now", "TEL": "(212) 343-2211", "URL": "http:\/\/www.yelp.com\/biz\/time-is-always-now-peter-beard-carnets-africans-new-york", "ADDRESS1": "476 Broome St.", "ADDRESS2": null, "CITY": "New York", "ZIP": 10013.000000 }, "geometry": { "type": "Point", "coordinates": [ -74.001652455263269, 40.723036007695072 ] } },
{ "type": "Feature", "properties": { "NAME": "Tk Oriental Antiques", "TEL": "(212) 980-6416", "URL": "http:\/\/newyork.maplist.org\/viewthread.php?tid=412663", "ADDRESS1": "41 E 57th St", "ADDRESS2": null, "CITY": "New York", "ZIP": 10022.000000 }, "geometry": { "type": "Point", "coordinates": [ -73.971829044819998, 40.762345560476248 ] } },
{ "type": "Feature", "properties": { "NAME": "Tobey Fine Art", "TEL": "(212) 431-7878", "URL": "http:\/\/www.artnet.com\/gallery\/140739\/tobey-fine-arts.html", "ADDRESS1": "580 Broadway", "ADDRESS2": null, "CITY": "New York", "ZIP": 10012.000000 }, "geometry": { "type": "Point", "coordinates": [ -73.997036684513375, 40.724435347606011 ] } },
{ "type": "Feature", "properties": { "NAME": "Ton Ying & Co", "TEL": "(212) 751-0134", "URL": "http:\/\/www.hatii.arts.gla.ac.uk\/admn\/php\/carp\/essay1.php?enum=1096638570", "ADDRESS1": "1050 2nd Ave", "ADDRESS2": "Rm 87", "CITY": "New York", "ZIP": 10022.000000 }, "geometry": { "type": "Point", "coordinates": [ -73.965717876718799, 40.758081125504248 ] } },
{ "type": "Feature", "properties": { "NAME": "Tonal Motion Inc", "TEL": "(212) 719-4393", "URL": "http:\/\/tonalmotion.org\/main.html", "ADDRESS1": "1026 Avenue of the Americas", "ADDRESS2": null, "CITY": "New York", "ZIP": 10018.000000 }, "geometry": { "type": "Point", "coordinates": [ -73.985461387082907, 40.752454571078189 ] } },
{ "type": "Feature", "properties": { "NAME": "Tonkonow Leslie", "TEL": "(212) 255-8450", "URL": "http:\/\/www.villagevoice.com\/locations\/leslie-tonkonow-artworks-projects-145055\/", "ADDRESS1": "535 W 22nd St", "ADDRESS2": null, "CITY": "New York", "ZIP": 10011.000000 }, "geometry": { "type": "Point", "coordinates": [ -74.006151093020904, 40.747958216576301 ] } },
{ "type": "Feature", "properties": { "NAME": "Tower Art Gallery", "TEL": "(212) 571-0100", "URL": "http:\/\/www.nelso.com\/us\/place\/50980\/", "ADDRESS1": "7 Maiden Ln", "ADDRESS2": null, "CITY": "New York", "ZIP": 10038.000000 }, "geometry": { "type": "Point", "coordinates": [ -74.00950849342685, 40.709838278724206 ] } },
{ "type": "Feature", "properties": { "NAME": "Traditional Art Gallery Inc", "TEL": "(212) 593-0350", "URL": "http:\/\/www.getfave.com\/locations\/844915-traditional-art-gallery-inc", "ADDRESS1": "1050 2nd Ave", "ADDRESS2": null, "CITY": "New York", "ZIP": 10022.000000 }, "geometry": { "type": "Point", "coordinates": [ -73.965855134754861, 40.758034786660509 ] } },
{ "type": "Feature", "properties": { "NAME": "Triangle Editions", "TEL": "(212) 355-3754", "URL": "http:\/\/www.getfave.com\/locations\/915361-triangle-editions", "ADDRESS1": "111 E 62nd St", "ADDRESS2": null, "CITY": "New York", "ZIP": 10021.000000 }, "geometry": { "type": "Point", "coordinates": [ -73.967773162075545, 40.764710751441058 ] } },
{ "type": "Feature", "properties": { "NAME": "Tribes Gallery", "TEL": "(212) 674-8262", "URL": "http:\/\/www.tribes.org\/web\/", "ADDRESS1": "285 E. Third St.", "ADDRESS2": null, "CITY": "New York", "ZIP": 10009.000000 }, "geometry": { "type": "Point", "coordinates": [ -73.979884081489701, 40.721555507795081 ] } },
{ "type": "Feature", "properties": { "NAME": "Triple Candie", "TEL": "(212) 865-0783", "URL": "http:\/\/artcritical.com\/fyfe\/JFNoland.htm", "ADDRESS1": "461 W 126th St", "ADDRESS2": null, "CITY": "New York", "ZIP": 10027.000000 }, "geometry": { "type": "Point", "coordinates": [ -73.955063217442046, 40.813746578901224 ] } },
{ "type": "Feature", "properties": { "NAME": "Triton Collection the", "TEL": "(212) 594-9590", "URL": "http:\/\/www.tritonjewelry.com\/home.php", "ADDRESS1": "224 12th Ave", "ADDRESS2": null, "CITY": "New York", "ZIP": 10001.000000 }, "geometry": { "type": "Point", "coordinates": [ -74.007048943720307, 40.752579119439936 ] } },
{ "type": "Feature", "properties": { "NAME": "Troubetzkoy Paintings", "TEL": "(212) 473-4047", "URL": "http:\/\/www.troubetzkoypaintings.com\/", "ADDRESS1": "366 E 8th St", "ADDRESS2": null, "CITY": "New York", "ZIP": 10009.000000 }, "geometry": { "type": "Point", "coordinates": [ -73.977779594951457, 40.724229921949537 ] } },
{ "type": "Feature", "properties": { "NAME": "Tunick David", "TEL": "(212) 570-0090", "URL": "http:\/\/www.ifpda.org\/content\/node\/2617", "ADDRESS1": "19 East 66th Street", "ADDRESS2": null, "CITY": "New York", "ZIP": 10065.000000 }, "geometry": { "type": "Point", "coordinates": [ -73.96849022604961, 40.768330783472202 ] } },
{ "type": "Feature", "properties": { "NAME": "Turkana Gallery", "TEL": "(212) 732-0273", "URL": "http:\/\/www.tribal-kilims.com\/links.asp", "ADDRESS1": "125 Cedar St", "ADDRESS2": null, "CITY": "New York", "ZIP": 10006.000000 }, "geometry": { "type": "Point", "coordinates": [ -74.012452549889787, 40.709767780555659 ] } },
{ "type": "Feature", "properties": { "NAME": "Ubu Gallery", "TEL": "(212) 753-4444", "URL": "http:\/\/ubugallery.com\/phpwcms\/index.php?current", "ADDRESS1": "416 EAST 59 STREET", "ADDRESS2": null, "CITY": "New York", "ZIP": 10022.000000 }, "geometry": { "type": "Point", "coordinates": [ -73.961243895621791, 40.759047777031512 ] } },
{ "type": "Feature", "properties": { "NAME": "Under Minerva", "TEL": "(718) 788-0170", "URL": "http:\/\/blog.underminerva.com\/", "ADDRESS1": "656 5th Ave", "ADDRESS2": null, "CITY": "Brooklyn", "ZIP": 11215.000000 }, "geometry": { "type": "Point", "coordinates": [ -73.992640594635532, 40.662424448867796 ] } },
{ "type": "Feature", "properties": { "NAME": "Up & Co", "TEL": "(212) 966-7847", "URL": "http:\/\/www.verystyleguide.com\/upandco\/", "ADDRESS1": "257 Church St", "ADDRESS2": null, "CITY": "New York", "ZIP": 10013.000000 }, "geometry": { "type": "Point", "coordinates": [ -74.005253336080884, 40.718035958515692 ] } },
{ "type": "Feature", "properties": { "NAME": "Uptown Gallery the", "TEL": "(212) 722-3677", "URL": "http:\/\/www.uptowngallerynyc.com\/", "ADDRESS1": "1194 Madison Ave", "ADDRESS2": null, "CITY": "New York", "ZIP": 10128.000000 }, "geometry": { "type": "Point", "coordinates": [ -73.958341811529579, 40.781950825701507 ] } },
{ "type": "Feature", "properties": { "NAME": "Urban Architecture Gallery of Applied Arts Inc", "TEL": "(718) 349-3837", "URL": "http:\/\/www.urbanarchitecture.us\/", "ADDRESS1": "1205 Manhattan Ave", "ADDRESS2": null, "CITY": "Brooklyn", "ZIP": 11222.000000 }, "geometry": { "type": "Point", "coordinates": [ -73.955682903535802, 40.738720001172027 ] } },
{ "type": "Feature", "properties": { "NAME": "Ursus Books & Prints, Ltd.", "TEL": "(212) 744-1600", "URL": "http:\/\/www.ursusbooks.com\/", "ADDRESS1": "981 Madison Ave.", "ADDRESS2": null, "CITY": "New York", "ZIP": 10021.000000 }, "geometry": { "type": "Point", "coordinates": [ -73.963149476056756, 40.774550570471654 ] } },
{ "type": "Feature", "properties": { "NAME": "Valenzi Gallery & Framing", "TEL": "(718) 274-1419", "URL": "http:\/\/www.yellowbot.com\/tags\/frame\/New%20York,%20NY%2011105\/page1.html", "ADDRESS1": "2904 23rd St", "ADDRESS2": null, "CITY": "Astoria", "ZIP": 11102.000000 }, "geometry": { "type": "Point", "coordinates": [ -73.926091370532376, 40.769757974132197 ] } },
{ "type": "Feature", "properties": { "NAME": "Van De Weghe Fine Art", "TEL": "(212) 929-6633", "URL": "http:\/\/www.re-title.com\/exhibitions\/archive_VANDEWEGHEFINEART3915.asp", "ADDRESS1": "521 W 23rd St", "ADDRESS2": null, "CITY": "New York", "ZIP": 10011.000000 }, "geometry": { "type": "Point", "coordinates": [ -74.004858315990958, 40.748295055076021 ] } },
{ "type": "Feature", "properties": { "NAME": "Vance Jordan Fine Art", "TEL": "(212) 570-9500", "URL": "http:\/\/www.russianyellowpages.com\/business\/Vance_Jordan_Fine_Art", "ADDRESS1": "958 Madison Ave", "ADDRESS2": null, "CITY": "New York", "ZIP": 10001.000000 }, "geometry": { "type": "Point", "coordinates": [ -73.964124020550202, 40.774076225681569 ] } },
{ "type": "Feature", "properties": { "NAME": "Veranda Design", "TEL": "(212) 724-5156", "URL": "http:\/\/66.111.11.24\/arts__attractions\/veranda_design.973\/editorial_review.aspx", "ADDRESS1": "225 W 83rd St", "ADDRESS2": null, "CITY": "New York", "ZIP": 10024.000000 }, "geometry": { "type": "Point", "coordinates": [ -73.977192590977836, 40.78627112913945 ] } },
{ "type": "Feature", "properties": { "NAME": "Verona Arts Ltd", "TEL": "(212) 317-1010", "URL": "http:\/\/www.merchantcircle.com\/blogs\/Verona.Arts.LTD.212-317-1010", "ADDRESS1": "603 5th Ave", "ADDRESS2": null, "CITY": "New York", "ZIP": 10017.000000 }, "geometry": { "type": "Point", "coordinates": [ -73.977552243569605, 40.757493698989386 ] } },
{ "type": "Feature", "properties": { "NAME": "Viart Corporation", "TEL": "(212) 752-3500", "URL": "http:\/\/www.viartcorp.com\/", "ADDRESS1": "120 E 56th St", "ADDRESS2": null, "CITY": "New York", "ZIP": 10022.000000 }, "geometry": { "type": "Point", "coordinates": [ -73.970646995253404, 40.760430036317395 ] } },
{ "type": "Feature", "properties": { "NAME": "Vick Corporate Art Advisors", "TEL": "(212) 414-1976", "URL": "http:\/\/vickartadvisors.com\/", "ADDRESS1": "210 11th Ave", "ADDRESS2": "Rm 808", "CITY": "New York", "ZIP": 10001.000000 }, "geometry": { "type": "Point", "coordinates": [ -74.005773065068198, 40.749804550132396 ] } },
{ "type": "Feature", "properties": { "NAME": "Vieille Russie Inc Antiqs & Jwlry", "TEL": "(212) 752-1727", "URL": "http:\/\/www.artantiquedealersleague.org\/dealerdetails.asp?dealerID=5", "ADDRESS1": "781 5th Ave", "ADDRESS2": null, "CITY": "New York", "ZIP": 10022.000000 }, "geometry": { "type": "Point", "coordinates": [ -73.972530017840555, 40.764310122172752 ] } },
{ "type": "Feature", "properties": { "NAME": "Vietnam Art Design", "TEL": "(212) 431-8889", "URL": "http:\/\/www.galleryvietnam.com\/", "ADDRESS1": "345 Greenwich St", "ADDRESS2": null, "CITY": "New York", "ZIP": 10013.000000 }, "geometry": { "type": "Point", "coordinates": [ -74.010125696580658, 40.718403862408984 ] } },
{ "type": "Feature", "properties": { "NAME": "Viewpoint Gallery", "TEL": "(212) 242-5478", "URL": "http:\/\/www.viewpointgallery.com\/contact.php", "ADDRESS1": "41 Union Sq W", "ADDRESS2": "Ph", "CITY": "New York", "ZIP": 10003.000000 }, "geometry": { "type": "Point", "coordinates": [ -73.990689447980827, 40.737117985781495 ] } },
{ "type": "Feature", "properties": { "NAME": "Vincent Fremont Enterprises", "TEL": "(212) 414-1881", "URL": "http:\/\/www.manta.com\/coms2\/dnbcompany_6xq3v8", "ADDRESS1": "1 Union Sq W", "ADDRESS2": "Ste 307", "CITY": "New York", "ZIP": 10003.000000 }, "geometry": { "type": "Point", "coordinates": [ -73.991877711971412, 40.73550086652191 ] } },
{ "type": "Feature", "properties": { "NAME": "Viridian Artists Inc", "TEL": "(212) 414-4040", "URL": "http:\/\/www.viridianartists.com\/new\/index.cfm", "ADDRESS1": "530 W 25th St", "ADDRESS2": null, "CITY": "New York", "ZIP": 10001.000000 }, "geometry": { "type": "Point", "coordinates": [ -74.004727643550538, 40.749291381390172 ] } },
{ "type": "Feature", "properties": { "NAME": "Visage Studios", "TEL": "(212) 391-0131", "URL": "http:\/\/ny.serviceslisted.com\/1654518-VisageStudios.htm", "ADDRESS1": "12 West 37th Street", "ADDRESS2": "Rm 1211", "CITY": "New York", "ZIP": 10018.000000 }, "geometry": { "type": "Point", "coordinates": [ -73.984248410604579, 40.750551026019906 ] } },
{ "type": "Feature", "properties": { "NAME": "Visual Arts Gallery", "TEL": "(212) 598-0221", "URL": "http:\/\/www.nyc.com\/arts__attractions\/visual_arts_gallery.235\/whats_nearby.aspx", "ADDRESS1": "137 Wooster St", "ADDRESS2": null, "CITY": "New York", "ZIP": 10012.000000 }, "geometry": { "type": "Point", "coordinates": [ -74.000144313944574, 40.725920598893019 ] } },
{ "type": "Feature", "properties": { "NAME": "Volpe Organization", "TEL": "(212) 227-7913", "URL": "http:\/\/www.shopinmanhattan.com\/map.asp?mid=10584753&subCat=art+galleries", "ADDRESS1": "100 W End Ave", "ADDRESS2": null, "CITY": "New York", "ZIP": 10023.000000 }, "geometry": { "type": "Point", "coordinates": [ -73.988096167252877, 40.774825894476415 ] } },
{ "type": "Feature", "properties": { "NAME": "Wada Takashi Gallery", "TEL": "(212) 586-8979", "URL": "http:\/\/www.city-data.com\/businesses\/884092230-takashi-wada-gallery-new-york-ny.html", "ADDRESS1": "350 W 50th St", "ADDRESS2": null, "CITY": "New York", "ZIP": 10019.000000 }, "geometry": { "type": "Point", "coordinates": [ -73.988499606858412, 40.762906545309782 ] } },
{ "type": "Feature", "properties": { "NAME": "Wade Maxx Art Gallery", "TEL": "(212) 579-6529", "URL": "http:\/\/www.wademaxx.com\/", "ADDRESS1": "191 Columbus Ave", "ADDRESS2": null, "CITY": "New York", "ZIP": 10023.000000 }, "geometry": { "type": "Point", "coordinates": [ -73.980137554062168, 40.775209204933212 ] } },
{ "type": "Feature", "properties": { "NAME": "Wally Findlay Galleries", "TEL": "(212) 421-5390", "URL": "http:\/\/www.wallyfindlay.com\/", "ADDRESS1": "124 E 57th St", "ADDRESS2": null, "CITY": "New York", "ZIP": 10022.000000 }, "geometry": { "type": "Point", "coordinates": [ -73.969787323541709, 40.760889728798986 ] } },
{ "type": "Feature", "properties": { "NAME": "Ward-Nasse Gallery", "TEL": "(212) 925-6951", "URL": "http:\/\/www.wardnasse.org\/", "ADDRESS1": "178 Prince St", "ADDRESS2": null, "CITY": "New York", "ZIP": 10012.000000 }, "geometry": { "type": "Point", "coordinates": [ -74.002069489264699, 40.72612434936029 ] } },
{ "type": "Feature", "properties": { "NAME": "Washburn Galleries", "TEL": "(212) 397-6780", "URL": "http:\/\/www.washburngallery.com\/", "ADDRESS1": "20 W 57th St", "ADDRESS2": "Lbby", "CITY": "New York", "ZIP": 10019.000000 }, "geometry": { "type": "Point", "coordinates": [ -73.975489397157418, 40.76329173421361 ] } },
{ "type": "Feature", "properties": { "NAME": "Washington Sq Outdoor Art Exhibit Inc", "TEL": "(212) 982-6255", "URL": "http:\/\/www.washingtonsquareoutdoorartexhibit.org\/", "ADDRESS1": "115 E 9th St", "ADDRESS2": null, "CITY": "New York", "ZIP": 10003.000000 }, "geometry": { "type": "Point", "coordinates": [ -73.98955957434984, 40.730553514066926 ] } },
{ "type": "Feature", "properties": { "NAME": "Webster David", "TEL": "(212) 367-8120", "URL": "http:\/\/www.7mainstreet.com\/business\/unclaimed\/webster-david-new-york-ny-10001\/14671913", "ADDRESS1": "448 W 16th St", "ADDRESS2": null, "CITY": "New York", "ZIP": 10011.000000 }, "geometry": { "type": "Point", "coordinates": [ -74.006049935188258, 40.74255494022389 ] } },
{ "type": "Feature", "properties": { "NAME": "Weisbrod Chinese Art Ltd", "TEL": "(212) 319-1335", "URL": "http:\/\/www.weisbrodltd.com\/wsbhome.html", "ADDRESS1": "36 E 57th St", "ADDRESS2": null, "CITY": "New York", "ZIP": 10022.000000 }, "geometry": { "type": "Point", "coordinates": [ -73.971956581318835, 40.761836064572421 ] } },
{ "type": "Feature", "properties": { "NAME": "Wellesley the", "TEL": "(212) 288-2666", "URL": "http:\/\/www.nyc.com\/arts__attractions\/wellesley_the.795\/whats_nearby.aspx", "ADDRESS1": "200 E 72nd St", "ADDRESS2": null, "CITY": "New York", "ZIP": 10021.000000 }, "geometry": { "type": "Point", "coordinates": [ -73.96043137050205, 40.76937886836501 ] } },
{ "type": "Feature", "properties": { "NAME": "Wessel & O'Connor", "TEL": "(212) 242-8811", "URL": "http:\/\/www.wesseloconnor.com\/", "ADDRESS1": "242 W. 26th St.", "ADDRESS2": null, "CITY": "New York", "ZIP": 10011.000000 }, "geometry": { "type": "Point", "coordinates": [ -73.996042720857787, 40.746583624207517 ] } },
{ "type": "Feature", "properties": { "NAME": "Westbeth Gallery", "TEL": "(212) 989-4650", "URL": "http:\/\/www.westbeth.org\/", "ADDRESS1": "55 Bethune St", "ADDRESS2": "# 318-C", "CITY": "New York", "ZIP": 10014.000000 }, "geometry": { "type": "Point", "coordinates": [ -74.008922073696041, 40.736816090732617 ] } },
{ "type": "Feature", "properties": { "NAME": "Western Art Collectors Society", "TEL": "(718) 351-5268", "URL": "http:\/\/www.americaonwheels.com\/NewYork\/WESTERN_ART_COLLECTORS_SOCIETY", "ADDRESS1": "1374 Richmond Rd", "ADDRESS2": null, "CITY": "Staten Island", "ZIP": 10304.000000 }, "geometry": { "type": "Point", "coordinates": [ -74.097405108965958, 40.595249797371046 ] } },
{ "type": "Feature", "properties": { "NAME": "Westwood Gallery", "TEL": "(212) 925-5700", "URL": "http:\/\/www.westwoodgallery.com\/", "ADDRESS1": "568 Broadway", "ADDRESS2": null, "CITY": "New York", "ZIP": 10012.000000 }, "geometry": { "type": "Point", "coordinates": [ -73.997344338296656, 40.724422962305638 ] } },
{ "type": "Feature", "properties": { "NAME": "Weybridge Fine Art", "TEL": "(212) 628-5445", "URL": "http:\/\/ny.citysquares.com\/manhattan\/chelsea\/arts-entertainment\/artists-art-dealers\/weybridge-fine-art-30-e-81-madison-ave", "ADDRESS1": "30 E 81st St", "ADDRESS2": null, "CITY": "New York", "ZIP": 10028.000000 }, "geometry": { "type": "Point", "coordinates": [ -73.960978058428353, 40.77737493217591 ] } },
{ "type": "Feature", "properties": { "NAME": "Whas Cultural Art Center Inc", "TEL": "(212) 569-2224", "URL": "http:\/\/www.ziphip.com\/whas+cultural+art+center+inc.9.7203168p.home.html", "ADDRESS1": "4450 Broadway", "ADDRESS2": null, "CITY": "New York", "ZIP": 10040.000000 }, "geometry": { "type": "Point", "coordinates": [ -73.932498026462767, 40.856247327435305 ] } },
{ "type": "Feature", "properties": { "NAME": "White Box", "TEL": "(212) 714-2347", "URL": "http:\/\/www.whiteboxny.org\/", "ADDRESS1": "525 W. 26th St.", "ADDRESS2": null, "CITY": "New York", "ZIP": 10001.000000 }, "geometry": { "type": "Point", "coordinates": [ -74.003982608051373, 40.750322906757262 ] } },
{ "type": "Feature", "properties": { "NAME": "White Columns Inc", "TEL": "(212) 924-4212", "URL": "http:\/\/newyork.going.com\/venue-3874;White_Columns_Inc", "ADDRESS1": "320 W 13th St", "ADDRESS2": null, "CITY": "New York", "ZIP": 10014.000000 }, "geometry": { "type": "Point", "coordinates": [ -74.004122986746154, 40.739073390054465 ] } },
{ "type": "Feature", "properties": { "NAME": "Whitfield James Fine Art", "TEL": "(212) 982-8050", "URL": "http:\/\/www.facebook.com\/pages\/London-United-Kingdom\/Whitfield-Fine-Art\/184172920606", "ADDRESS1": "107 University Pl", "ADDRESS2": null, "CITY": "New York", "ZIP": 10003.000000 }, "geometry": { "type": "Point", "coordinates": [ -73.992233448390309, 40.734151720410487 ] } },
{ "type": "Feature", "properties": { "NAME": "Wickiser Walter Gallery Inc", "TEL": "(212) 941-1817", "URL": "http:\/\/www.walterwickisergallery.com\/", "ADDRESS1": "210 Eleventh Avenue", "ADDRESS2": "Suite 303", "CITY": "New York", "ZIP": 10001.000000 }, "geometry": { "type": "Point", "coordinates": [ -74.005834220267687, 40.749708933124914 ] } },
{ "type": "Feature", "properties": { "NAME": "Willow Woodstock Artistic Enterprises", "TEL": "(212) 677-6547", "URL": "http:\/\/www.yelp.com\/biz\/willow-woodstock-artistic-enterprises-new-york", "ADDRESS1": "92 Saint Marks Pl", "ADDRESS2": null, "CITY": "New York", "ZIP": 10009.000000 }, "geometry": { "type": "Point", "coordinates": [ -73.985037737687463, 40.727317987532864 ] } },
{ "type": "Feature", "properties": { "NAME": "Wilmer Jenning Gallery", "TEL": "(212) 505-6771", "URL": "http:\/\/www.merchantcircle.com\/business\/Wilmer.Jenning.Gallery.212-505-6771", "ADDRESS1": "215 E 2nd St", "ADDRESS2": null, "CITY": "New York", "ZIP": 10009.000000 }, "geometry": { "type": "Point", "coordinates": [ -73.982975639830144, 40.721588112300438 ] } },
{ "type": "Feature", "properties": { "NAME": "Winston Wachter Mayer Fine Art", "TEL": "(212) 255-2718", "URL": "http:\/\/www.winstonwachter.com\/", "ADDRESS1": "530 W 25th St", "ADDRESS2": "# 102", "CITY": "New York", "ZIP": 10001.000000 }, "geometry": { "type": "Point", "coordinates": [ -74.00469933980682, 40.749470550833863 ] } },
{ "type": "Feature", "properties": { "NAME": "Winter Works On Paper", "TEL": "(718) 599-0910", "URL": "http:\/\/www.winterworksonpaper.com\/about.htm", "ADDRESS1": "167 North 9th Street", "ADDRESS2": null, "CITY": "Brooklyn", "ZIP": 11211.000000 }, "geometry": { "type": "Point", "coordinates": [ -73.955968986520404, 40.718843857404792 ] } },
{ "type": "Feature", "properties": { "NAME": "Wolf Daniel Inc", "TEL": "(212) 772-7721", "URL": "http:\/\/www.manta.com\/coms2\/dnbcompany_d947yw", "ADDRESS1": "52 E 78th St", "ADDRESS2": null, "CITY": "New York", "ZIP": 10021.000000 }, "geometry": { "type": "Point", "coordinates": [ -73.962087390674654, 40.775154974749299 ] } },
{ "type": "Feature", "properties": { "NAME": "Woodward Gallery", "TEL": "(212) 966-3411", "URL": "http:\/\/www.woodwardgallery.net\/", "ADDRESS1": "133 Eldridge Street", "ADDRESS2": null, "CITY": "New York", "ZIP": 10002.000000 }, "geometry": { "type": "Point", "coordinates": [ -73.991817194078735, 40.719013435154068 ] } },
{ "type": "Feature", "properties": { "NAME": "WORLD AFRICA", "TEL": "(212) 781-1872", "URL": "http:\/\/manhattan.ny.povo.com\/World_Africa", "ADDRESS1": "779 RIVERSIDE DR", "ADDRESS2": "APT A60", "CITY": "New York", "ZIP": 10032.000000 }, "geometry": { "type": "Point", "coordinates": [ -73.94753650623619, 40.835145039036099 ] } },
{ "type": "Feature", "properties": { "NAME": "World Art Center", "TEL": "(212) 791-4941", "URL": "http:\/\/www.merchantcircle.com\/business\/World.Art.Center.212-791-4941", "ADDRESS1": "104 Nassau St", "ADDRESS2": null, "CITY": "New York", "ZIP": 10038.000000 },